id,Stop_name,Stop_code,Common_code,Latitude,Longitude,Road_side,Road_number,Street,County,Parish,Village
"1","Meža māja","15305","5514","56.9495100","23.5123491","Kreisā","","Tūristu iela","Jūrmala","",""
"2","Meža māja","15306","5514","56.9497580","23.5132277","Labā","","Tūristu iela","Jūrmala","",""
"3","Ogres Kalna pamatskola","11560","301","56.8166902","24.6076858","Labā","","Kalna prospekts","Ogres novads","Ogres pilsēta","Ogre"
"4","Ogres Kalna pamatskola","11528","301","56.8168269","24.6074461","Kreisā","","Kalna prospekts","Ogres novads","Ogres pilsēta","Ogre"
"6","18. kilometrs","15308","5517","57.0279989","24.3632728","Kreisā","A2","","Ropažu novads","",""
"7","18. kilometrs","15309","5517","57.0280886","24.3647022","Labā","A2","","Ropažu novads","",""
"8","25.CR","12580","721","56.4823655","23.0859993","Kreisā","P96","","Auces novads","Bēnes pagasts","Bēne"
"9","25.CR","13029","721","56.4825882","23.0851327","Labā","P96","","Auces novads","Bēnes pagasts","Bēne"
"10","6.līnija","15310","5519","56.6524624","23.6416042","Kreisā","P97","Dobeles šoseja","Jelgava","",""
"11","A. Pumpura iela","15311","5520","56.8185385","24.5886998","Kreisā","","Andreja Pumpura iela","Ogres novads","Ogres pilsēta","Ogre"
"12","A. Pumpura iela","15312","5520","56.8189030","24.5888263","Labā","","Andreja Pumpura iela","Ogres novads","Ogres pilsēta","Ogre"
"13","A.Upīša iela","15313","5533","56.8198995","24.5767975","Labā","","Jaunogres prospekts","Ogres novads","Ogres pilsēta","Ogre"
"14","A.Upīša iela","15314","5533","56.8199419","24.5774440","Kreisā","","Jaunogres prospekts","Ogres novads","Ogres pilsēta","Ogre"
"15","A/S Jūrmalas celtnieks","11892","333","56.9621928","23.7722089","Kreisā","","Slokas iela","Jūrmala","",""
"16","A/S Jūrmalas celtnieks","11841","333","56.9630515","23.7721544","Labā","","Slokas iela","Jūrmala","",""
"17","A/s Preiļu siers","13030","730","56.2791336","26.7195925","Labā","V752","Andreja Upīša iela 1","Preiļu novads","Preiļu pagasts",""
"18","A/S Ruks","15315","781","57.3011920","25.2633468","Labā","","Krūmiņu iela 19","Cēsu novads","Cēsu pilsēta","Cēsis"
"19","AAS","15316","5534","57.4964302","22.8224457","Labā","P131","","Rojas novads","","Roja"
"20","AAS","15317","5534","57.4958460","22.8225740","Kreisā","P131","Selgas iela ","Rojas novads","","Roja"
"21","Dāvji","13031","733","56.7193466","24.1112348","Labā","V7","","Olaines novads","Olaines pagasts","Dāvi"
"22","Dāvji","13032","733","56.7202383","24.1114136","Kreisā","V7","","Olaines novads","Olaines pagasts","Dāvi"
"23","Ābelītes","13033","738","56.8096453","24.6480498","Kreisā","V967","J.Čakstes prospekts","Ogres novads","Ogres pilsēta","Ogre"
"24","Ābelītes","13034","739","57.3246764","26.8407863","Kreisā","V396","","Alūksnes novads","Kalncempju pagasts",""
"25","Ābelītes","13035","739","57.3247004","26.8407637","Labā","V396","","Alūksnes novads","Kalncempju pagasts",""
"26","Āboli","13036","741","55.8710866","26.3139195","Labā","V696","","Daugavpils novads","Sventes pagasts",""
"27","Āboli","13037","741","55.8712715","26.3138599","Kreisā","V696","","Daugavpils novads","Sventes pagasts",""
"28","Uzņēmumu parks","15318","5535","56.9146774","24.2859596","Labā","V35","","Salaspils novads","","Acone"
"29","Uzņēmumu parks","15319","5535","56.9147829","24.2844180","Kreisā","V35","","Salaspils novads","","Acone"
"31","Ādažu iela","15321","5539","57.0131794","24.2595867","Labā","","Ādažu iela","Ropažu novads","","Bukulti"
"32","Ādažu iela","15322","5539","57.0142902","24.2594762","Kreisā","","Ādažu iela","Ropažu novads","","Bukulti"
"34","Ādiņas","13120","922","56.8796140","24.1729634","Labā","V2","","Ķekavas novads","Ķekavas pagasts","Katlakalns"
"35","Ādiņas","13121","922","56.8797002","24.1728810","Kreisā","V2","","Ķekavas novads","Ķekavas pagasts","Katlakalns"
"36","Adzelvieši","13276","1345","57.7258893","25.3287501","Kreisā","V231","","Burtnieku novads","Burtnieku pagasts",""
"37","Adzelvieši","13277","1345","57.7258992","25.3287443","Labā","V231","","Burtnieku novads","Burtnieku pagasts",""
"38","Aizcirtums","13777","2531","57.4208406","27.1696184","Labā","V400","","Alūksnes novads","Jaunalūksnes pagasts",""
"39","Aizcirtums","13778","2531","57.4210219","27.1694766","Kreisā","V400","","Alūksnes novads","Jaunalūksnes pagasts",""
"40","Aizelkšņi","13253","1248","56.7968777","27.6375010","Labā","P48","","Kārsavas novads","Salnavas pagasts",""
"41","Aizelkšņi","13254","1248","56.7969744","27.6397803","Kreisā","P48","","Kārsavas novads","Salnavas pagasts",""
"42","Aizklāņi","15324","5542","57.6672248","22.5702412","Kreisā","P131","","Rojas novads","","Melnsils"
"43","Aizklāņi","15325","5542","57.6678935","22.5705806","Labā","P131","","Rojas novads","","Melnsils"
"44","Aizkraukles iela","15326","5543","56.5197320","25.8500900","Labā","A6","Rīgas iela","Jēkabpils","",""
"45","Aizkraukles iela","15327","5543","56.5204634","25.8488672","Kreisā","A6","Rīgas iela","Jēkabpils","",""
"46","Aizkraukles kultūras nams","15328","5550","56.6155191","25.2247657","Labā","","Kalna iela 20","Aizkraukles novads","Aizkraukles pagasts","Aizkraukle"
"47","Aizkraukles kultūras nams","15329","5550","56.6155212","25.2254486","Kreisā","","Kalna iela 20","Aizkraukles novads","Aizkraukles pagasts","Aizkraukle"
"48","Aizkraukles pagasts","15330","8281","56.6169493","25.2188174","A/V","","Kalna iela 4","Aizkraukles novads","Aizkraukles pagasts","Aizkraukle"
"49","Aizmeži","13383","1655","57.5906250","25.2290635","Labā","V216","","Kocēnu novads","Bērzaines pagasts",""
"50","Aizmeži","13384","1655","57.5906297","25.2290373","Kreisā","V216","","Kocēnu novads","Bērzaines pagasts",""
"51","Aizpūre","15018","4854","56.5832098","27.9846950","Kreisā","V509","","Ciblas novads","Līdumnieku pagasts",""
"52","Aizpūre","15019","4854","56.5832334","27.9847476","Labā","V509","","Ciblas novads","Līdumnieku pagasts",""
"53","Aizupes","9177","203","56.6946300","23.8024502","A/V","P100","Rīgas iela","Ozolnieku novads","Ozolnieku pagasts","Ozolnieki"
"56","Akmeņdruvas","13996","2894","57.5039362","27.3596585","Labā","V392","","Alūksnes novads","Pededzes pagasts",""
"57","Akmeņdruvas","13997","2894","57.5039683","27.3593982","Kreisā","V392","","Alūksnes novads","Pededzes pagasts",""
"58","Akmeņdruvas","13998","2896","57.4307980","27.4420880","Labā","P42","","Alūksnes novads","Pededzes pagasts",""
"59","Akmeņdruvas","13999","2896","57.4306420","27.4419590","Kreisā","P42","","Alūksnes novads","Pededzes pagasts",""
"60","Akmeņdziras","15194","9567","57.4820026","21.6711893","Kreisā","P124","","Ventspils novads","Tārgales pagasts",""
"61","Akmeņkalni","14529","3849","57.9994577","25.0426969","Labā","V170","","Mazsalacas novads","Ramatas pagasts",""
"62","Akmeņkalni","14530","3849","58.0000460","25.0415314","Kreisā","V170","","Mazsalacas novads","Ramatas pagasts",""
"63","Akmeņkalni","13842","2676","57.7441832","24.3949710","Kreisā","P12","","Salacgrīvas novads","Salacgrīvas pagasts",""
"64","Akmeņkalni","13843","2676","57.7444896","24.3942193","Labā","P12","","Salacgrīvas novads","Salacgrīvas pagasts",""
"65","Akmeņu iela","15331","5556","56.4981352","25.8621460","Kreisā","","Pasta iela 73-75","Jēkabpils","",""
"66","Akmeņu iela","14446","3741","56.8044805","24.6103194","Labā","","Daugavpils Iela","Ogres novads","Ogres pilsēta","Ogre"
"67","Akmeņu iela","14447","3741","56.8046178","24.6106361","Kreisā","","Daugavpils Iela","Ogres novads","Ogres pilsēta","Ogre"
"68","aknīste","13603","2077","56.1607313","25.7490033","A/V","P73","Augšzemes iela 19","Aknīstes novads","Aknīstes pilsēta","Aknīste"
"69","Aknīstes vidusskola","11575","9609","56.1633306","25.7369725","A/V","","Skolas iela 19","Aknīstes novads","Aknīstes pilsēta","Aknīste"
"70","Aksenova","15197","5192","56.1963390","27.6890991","Kreisā","P49","","Dagdas novads","Ezernieku pagasts",""
"71","Aksenova","15198","5192","56.1965175","27.6893483","Labā","P49","","Dagdas novads","Ezernieku pagasts",""
"72","Akurātera iela","15332","5557","56.4884222","25.8833255","Labā","","Brīvības iela 6","Jēkabpils","",""
"73","Ālande","14904","4623","56.5079600","21.1713400","Labā","P113","","Grobiņas novads","Grobiņas pagasts",""
"74","Ālande","14905","4623","56.5075300","21.1712100","Kreisā","P113","","Grobiņas novads","Grobiņas pagasts",""
"75","Albatross","13472","1886","57.1097984","23.2209854","Kreisā","P131","","Engures novads","Engures pagasts",""
"76","Albatross","13473","1886","57.1102983","23.2209619","Labā","P131","","Engures novads","Engures pagasts",""
"77","Aldaunas iela","15333","5563","56.4791540","25.8780465","Labā","","Aldaunas iela 19","Jēkabpils","",""
"78","Alejas","15241","5358","56.5354648","21.3957234","Labā","V1206","","Durbes novads","Tadaiķu pagasts",""
"79","Alejas","15242","5358","56.5354925","21.3959670","Kreisā","V1206","","Durbes novads","Tadaiķu pagasts",""
"80","Alekši","14408","3701","57.2219556","21.4584432","Kreisā","P111","","Ventspils novads","Užavas pagasts",""
"81","Alekši","14409","3701","57.2216790","21.4579677","Labā","P111","","Ventspils novads","Užavas pagasts","Užava"
"82","Alkšņi","13517","1954","56.1230943","26.0680342","A/V","V708","","Jēkabpils novads","Rubenes pagasts",""
"83","Alkšņi","14281","3497","56.8664388","22.7622913","Labā","V1459","","Kandavas novads","Zantes pagasts",""
"84","Alkšņi","14282","3497","56.8675904","22.7604679","Kreisā","V1459","","Kandavas novads","Zantes pagasts",""
"85","Alkšņi","15123","4990","56.7447566","24.6684891","Labā","P85","","Ķeguma novads","Tomes pagasts",""
"86","Alkšņi","15124","4990","56.7448290","24.6680702","Kreisā","P85","","Ķeguma novads","Tomes pagasts",""
"87","Alkšņu iela","15334","5565","56.8755213","23.9457984","Labā","","Ozolu iela","Mārupes novads","","Jaunmārupe"
"88","Almāle","15335","5570","56.9815737","21.6358802","A/V","V1285","","Alsungas novads","",""
"89","Altkirha","14399","3682","55.8438174","26.4432790","Kreisā","A13","","Daugavpils novads","Kalkūnes pagasts",""
"90","Altkirha","14400","3682","55.8441381","26.4432700","Labā","A13","","Daugavpils novads","Kalkūnes pagasts",""
"92","Aļkovka","14029","2923","56.5545615","27.2657540","Labā","V575","","Rēzeknes novads","Audriņu pagasts",""
"93","Amatas pagrieziens","14492","3804","57.2320535","25.2734553","Kreisā","P31","","Amatas novads","Drabešu pagasts",""
"94","Amatas pagrieziens","14493","3804","57.2320919","25.2735271","Labā","P31","","Amatas novads","Drabešu pagasts",""
"95","Amatnieki","15336","5572","56.9685253","24.3386475","Kreisā","","","Ropažu novads","","Amatnieki"
"96","Amatnieki","15337","5572","56.9698078","24.3399085","Labā","","","Ropažu novads","","Amatnieki"
"97","Amatnieku iela","13632","2190","56.8126647","24.6402398","Kreisā","V996","Brīvības iela","Ogres novads","Ogres pilsēta","Ogre"
"98","Amatnieku iela","13633","2190","56.8129400","24.6420185","Labā","V996","Brīvības iela","Ogres novads","Ogres pilsēta","Ogre"
"99","Ambulance","14569","3908","57.1861285","25.6850693","Labā","V325","","Vecpiebalgas novads","Dzērbenes pagasts","Dzērbene"
"100","Ambulance","14570","3908","57.1863320","25.6851520","Kreisā","V325","","Vecpiebalgas novads","Dzērbenes pagasts","Dzērbene"
"101","Antāni","13438","1818","56.0909359","26.8564479","Kreisā","V684","","Daugavpils novads","Višķu pagasts",""
"102","Antāni","13439","1818","56.0915186","26.8571037","Labā","V684","","Daugavpils novads","Višķu pagasts",""
"103","Antanišķi","13461","1852","56.2262839","26.8938928","Labā","V744","","Riebiņu novads","Rušonas pagasts",""
"104","Antanišķi","13462","1852","56.2264239","26.8940208","Kreisā","V744","","Riebiņu novads","Rušonas pagasts",""
"105","Antēni","13849","2696","56.5044813","22.9145456","Kreisā","V1128","","Auces novads","Lielauces pagasts",""
"106","Antēni","13850","2696","56.5045304","22.9145021","Labā","V1128","","Auces novads","Lielauces pagasts",""
"107","Antiņēni","15110","4982","56.8956676","26.0028601","Kreisā","V884","","Madonas novads","Aronas pagasts",""
"108","Antiņēni","15111","4982","56.8957041","26.0029157","Labā","V884","","Madonas novads","Aronas pagasts",""
"109","Antskalni","14247","3414","57.0081519","26.0902783","Labā","V840","","Madonas novads","Liezēres pagasts",""
"110","Antskalni","14248","3414","57.0085287","26.0900992","Kreisā","V840","","Madonas novads","Liezēres pagasts",""
"112","Apsāni","13048","7526","56.2102135","26.9411628","Kreisā","V744","","Riebiņu novads","Rušonas pagasts",""
"113","Apši","15028","4861","56.5825336","27.5415596","Labā","V550","","Rēzeknes novads","Lendžu pagasts",""
"114","Apši","15029","4861","56.5826389","27.5415307","Kreisā","V550","","Rēzeknes novads","Lendžu pagasts",""
"115","Āpši","15339","5574","56.7690624","24.6579492","Labā","","Celmlaužu iela","Ogres novads","Ogresgala pagasts","Ciemupe"
"116","Apšukalni","13948","2847","56.8160908","24.0627968","Labā","V7","","Olaines novads","Olaines pagasts","Apšukalni"
"117","Apšukalni","13949","2847","56.8164660","24.0629910","Kreisā","V7","","Olaines novads","Olaines pagasts","Apšukalni"
"118","Aptekas","13819","2645","56.3804750","26.4179330","Kreisā","V761","","Līvānu novads","Rudzātu pagasts","Rudzāti"
"119","Aptekas","13820","2645","56.3819080","26.4197460","Labā","V761","","Līvānu novads","Rudzātu pagasts","Rudzāti"
"120","Aptieka","15139","5000","56.9145942","22.5547835","Labā","V1430","","Kandavas novads","Vānes pagasts",""
"121","Aptieka","15199","5197","56.7131594","26.1896808","Labā","P82","Aiviekstes iela 10","Madonas novads","Ļaudonas pagasts","Ļaudona"
"122","Aptieka","15200","5197","56.7133886","26.1890508","Kreisā","P82","Aiviekstes iela 7","Madonas novads","Ļaudonas pagasts","Ļaudona"
"123","Apvedceļš","15340","5575","56.9858412","24.3217467","Kreisā","","","Ropažu novads","","Upesciems"
"124","Arāji","13126","930","57.1037667","25.6334220","Kreisā","V309","","Vecpiebalgas novads","Taurenes pagasts",""
"125","Arāji","13127","930","57.1037762","25.6334497","Labā","V309","","Vecpiebalgas novads","Taurenes pagasts",""
"126","Ārdava","13634","2203","56.1416046","26.8297349","A/V","V747","","Preiļu novads","Pelēču pagasts","Ārdava"
"127","Arodskola","15341","5576","56.6081633","25.2587349","Kreisā","","Jaunceltnes iela 21","Aizkraukles novads","Aizkraukles pilsēta","Aizkraukle"
"128","Aronieši","14224","3372","56.6840124","26.0046730","Labā","P82","","Madonas novads","Kalsnavas pagasts",""
"129","Aronieši","14225","3372","56.6840966","26.0055633","Kreisā","P82","","Madonas novads","Kalsnavas pagasts",""
"130","Aronmūrnieki","13168","983","56.7372325","26.0890065","Labā","V877","","Madonas novads","Mārcienas pagasts",""
"131","Aronmūrnieki","13169","983","56.7374613","26.0890956","Kreisā","V877","","Madonas novads","Mārcienas pagasts",""
"132","Asfalta rūpnīca","15342","5580","56.9478725","23.6290025","Labā","","Ventspils šoseja","Jūrmala","",""
"133","Asfalta rūpnīca","15343","5580","56.9479116","23.6281088","Kreisā","","Ventspils šoseja","Jūrmala","",""
"134","Asīte","13701","2410","56.4804235","21.7287723","Kreisā","P106","","Priekules novads","Priekules pagasts","Asīte"
"135","Asīte","13702","2410","56.4804450","21.7288671","Labā","P106","","Priekules novads","Priekules pagasts","Asīte"
"136","Aspazijas muzejs","15344","5581","56.9719973","23.7821329","Labā","","Zigfrīda Meierovica prospekts","Jūrmala","",""
"137","Aspazijas muzejs","15345","5581","56.9720356","23.7831874","Kreisā","","Zigfrīda Meierovica prospekts","Jūrmala","",""
"138","Astiči","13851","2700","56.2937339","27.5044315","Labā","P56","","Rēzeknes novads","Kaunatas pagasts",""
"139","Astiči","13852","2700","56.2945282","27.5050676","Kreisā","P56","","Rēzeknes novads","Kaunatas pagasts",""
"140","Asūne","15284","1052","56.0258229","27.6208926","","","","Dagdas novads","Asūnes pagasts","Asúne"
"141","Ataugas","13623","2176","55.8403904","26.4808957","Kreisā","V695","Kalkūnes iela 25","Daugavpils novads","Kalkūnes pagasts","Kalkūni"
"142","Ataugas","13624","2176","55.8406025","26.4808359","Labā","V695","Kalkūnes iela 25","Daugavpils novads","Kalkūnes pagasts","Kalkūni"
"143","Atbalss iela","15346","5592","56.9464969","23.6432416","Kreisā","","Jūrkalnes iela","Jūrmala","",""
"144","Atbalss iela","15347","5592","56.9466481","23.6429984","Labā","","Jūrkalnes iela","Jūrmala","",""
"145","Atpiļi","14733","4073","57.5571102","25.7327833","Labā","V241","","Beverīnas novads","Trikātas pagasts",""
"146","Atpiļi","14734","4073","57.5574759","25.7338654","Kreisā","V241","","Beverīnas novads","Trikātas pagasts",""
"147","Atpūtas","14771","4158","56.9801696","23.2445056","Kreisā","V1446","","Engures novads","Smārdes pagasts",""
"148","Atpūtas","14772","4158","56.9803476","23.2462544","Labā","V1446","","Engures novads","Smārdes pagasts",""
"149","Atpūtas","13805","2631","57.0340916","23.4384639","Kreisā","P128","","Engures novads","Lapmežciema pagasts",""
"150","Atpūtas","13806","2631","57.0342844","23.4375720","Labā","P128","","Engures novads","Lapmežciema pagasts",""
"151","Attīrīšanas iekārtas","15348","5597","56.9354666","23.6591027","Labā","","Mežmalas iela","Jūrmala","",""
"152","Attīrīšanas iekārtas","15349","5598","56.9355742","23.6587974","Kreisā","","Mežmalas iela","Jūrmala","",""
"153","Atvari","13765","2514","57.4643881","26.0991683","Labā","V244","","Smiltenes novads","Bilskas pagasts",""
"154","Atvari","13766","2514","57.4643938","26.0991822","Kreisā","V244","","Smiltenes novads","Bilskas pagasts",""
"157","Auces Meliorators","11694","303","56.4703057","22.9166544","Kreisā","P96","","Auces novads","Auces pilsēta","Auce"
"158","Auces Meliorators","11600","303","56.4704024","22.9169889","Labā","P96","","Auces novads","Auces pilsēta","Auce"
"159","Audari","14336","3607","56.4775765","21.6687980","Kreisā","P106","","Priekules novads","Priekules pagasts","Audari"
"160","Audari","14337","3607","56.4778625","21.6680931","Labā","P106","","Priekules novads","Priekules pagasts","Audari"
"161","Augstāres","15350","7637","57.1678783","25.8587557","Labā","","","Jaunpiebalgas novads","Zosēnu pagasts",""
"162","Augstežas","15055","4885","57.5212551","27.0660262","Kreisā","V386","","Alūksnes novads","Ziemera pagasts",""
"163","Augstežas","15056","4885","57.5212967","27.0661540","Labā","V386","","Alūksnes novads","Ziemera pagasts",""
"164","Augstkalne","14379","3660","55.9165750","27.1515534","Labā","P62","","Krāslavas novads","Ūdrīšu pagasts","Augstkalne"
"165","Augstkalne","14380","3660","55.9149122","27.1529862","Kreisā","P62","Stacijas iela 26","Krāslavas novads","Ūdrīšu pagasts","Augstkalne"
"166","Augškalni","11703","320","56.2987977","24.5516265","Labā","","","Bauskas novads","Brunavas pagasts",""
"167","Augšmukti","14969","4770","56.2602484","26.3643839","Kreisā","V682","","Vārkavas novads","Rožkalnu pagasts",""
"168","Augšmukti","14970","4770","56.2605363","26.3643330","Labā","V682","","Vārkavas novads","Rožkalnu pagasts",""
"171","Aurora","15351","5599","56.8340187","24.1039964","A/V","","","Olaines novads","Olaines pagasts",""
"172","Ausmas","14416","3706","57.1642510","24.7992569","Kreisā","P7","","Siguldas novads","",""
"173","Ausmas","14417","3706","57.1642963","24.8006827","Labā","P7","","Siguldas novads","",""
"174","Ausmas iela","11763","322","56.6105116","23.2855624","Kreisā","","Meža prospekts 36","Dobeles novads","Dobeles pilsēta","Dobele"
"175","Ausmas iela","11720","322","56.6109823","23.2853048","Labā","","Meža prospekts 39","Dobeles novads","Dobeles pilsēta","Dobele"
"176","Austrumi","12723","539","55.7087547","26.5625423","Kreisā","V691","","Daugavpils novads","Demenes pagasts",""
"177","Austrumi","12696","539","55.7091167","26.5608081","Labā","V691","","Daugavpils novads","Demenes pagasts",""
"178","Austrumi","12663","536","56.6016367","26.3350344","Kreisā","P62","","Madonas novads","Mētrienas pagasts",""
"179","Austrumi","12641","536","56.6017700","26.3342600","Labā","P62","","Madonas novads","Mētrienas pagasts",""
"180","Austrumi","12726","541","56.6702355","25.3525853","A/V","V996","","Kokneses novads","Kokneses pagasts",""
"181","Autoosta","15352","5602","56.3498653","25.5563385","A/V","","Biržu iela 2","Viesītes novads","Viesītes pilsēta","Viesīte"
"182","Autoosta","15353","5604","57.5087013","24.7213691","Labā","","Stacijas iela","Limbažu novads","Limbažu pilsēta","Limbaži"
"183","Auziņas","15354","5605","56.7842115","23.0186767","Kreisā","P104","","Jaunpils novads","Jaunpils pagasts",""
"184","Auziņas","14346","3620","56.7828434","23.0186653","Labā","P104","","Jaunpils novads","Jaunpils pagasts",""
"185","Aviators","13190","1079","56.7241279","24.2137395","Kreisā","V27","","Ķekavas novads","Ķekavas pagasts","Dzērumi"
"186","Aviators","13191","1079","56.7250828","24.2119395","Labā","V27","","Ķekavas novads","Ķekavas pagasts","Dzērumi"
"187","Avoti","14000","2897","56.5595081","23.6558355","Labā","V1056","","Jelgavas novads","Svētes pagasts",""
"188","Avoti","14001","2897","56.5601220","23.6565514","Kreisā","V1056","","Jelgavas novads","Svētes pagasts","Svēte"
"189","Avotiņi","8451","183","56.5777150","23.3591197","Labā","V1098","","Dobeles novads","Krimūnu pagasts",""
"190","Avotiņi","8449","183","56.5786584","23.3574199","Kreisā","V1098","","Dobeles novads","Krimūnu pagasts",""
"191","Avotiņi","8427","181","56.4945236","23.5505712","Kreisā","V1098","","Jelgavas novads","Zaļenieku pagasts",""
"192","Sporta iela","15355","7673","56.7525593","24.7843420","Labā","","Lielvārdes iela","Ķeguma novads","Rembates pagasts","Rembate"
"197","Katlakalna tautas nams","15360","5622","56.8755051","24.1792433","Kreisā","","Pļavniekkalna iela","Ķekavas novads","Ķekavas pagasts","Katlakalns"
"198","Katlakalna tautas nams","15361","5622","56.8755873","24.1787122","Labā","","Pļavniekkalna iela","Ķekavas novads","Ķekavas pagasts","Katlakalns"
"199","Veikals 'Top'","15362","5641","57.8581284","24.3568300","Kreisā","","Valdemāra iela","Salacgrīvas novads","Ainažu pilsēta","Ainaži"
"200","Veikals 'Top'","15363","5641","57.8585430","24.3570757","Labā","","Valdemāra iela","Salacgrīvas novads","Ainažu pilsēta","Ainaži"
"201","Brīvības laukums","15364","5646","56.9655362","23.1571239","Kreisā","","Brīvības laukums","Tukuma novads","Tukuma pilsēta","Tukums"
"202","Durbes iela","15365","7354","56.9681556","23.1862214","Kreisā","","Durbes iela","Tukuma novads","Tukuma pilsēta","Tukums"
"203","Durbes iela","15366","7354","56.9682934","23.1857861","Labā","","Durbes iela","Tukuma novads","Tukuma pilsēta","Tukums"
"204","Jāņu iela","15367","5651","56.9712148","23.1538949","Labā","","Kurzemes iela","Tukuma novads","Tukuma pilsēta","Tukums"
"205","Spāru iela","15368","5652","56.9687484","23.1852832","Kreisā","","L. Dzelzceļa iela","Tukuma novads","Tukuma pilsēta","Tukums"
"206","Revolūcijas iela","15369","5654","56.9683939","23.1395611","Labā","","Revolūcijas iela","Tukuma novads","Tukuma pilsēta","Tukums"
"208","Talsu iela","15371","5660","56.9659666","23.1402267","Kreisā","","Talsu iela","Tukuma novads","Tukuma pilsēta","Tukums"
"209","Tehnikas iela","15372","5684","56.9518426","23.1251278","Labā","","Tehnikas iela","Tukuma novads","Tukuma pilsēta","Tukums"
"210","Tehnikas iela","15373","5684","56.9521580","23.1252175","Kreisā","","Tehnikas iela","Tukuma novads","Tukuma pilsēta","Tukums"
"211","Tirgus iela","15374","5686","56.9641704","23.1300539","Kreisā","","Tirgus iela","Tukuma novads","Tukuma pilsēta","Tukums"
"212","Tirgus iela","15375","5686","56.9642471","23.1303584","Labā","","Tirgus iela","Tukuma novads","Tukuma pilsēta","Tukums"
"213","Veļķu iela","15376","5696","56.9661679","23.1232705","Labā","","Veļķu iela","Tukuma novads","Tukuma pilsēta","Tukums"
"214","Veļķu iela","15377","5696","56.9662641","23.1233173","Kreisā","","Veļķu iela","Tukuma novads","Tukuma pilsēta","Tukums"
"215","Ziemeļu iela","15378","5702","57.3861728","24.4116447","Labā","","Sidrabiņi-Sēklīši","Limbažu novads","Skultes pagasts","Vārzas"
"216","Cēsu iela","15379","5708","57.5139591","24.7160616","Kreisā","","Cēsu iela","Limbažu novads","Limbažu pilsēta","Limbaži"
"217","Ciema iela","15380","5722","57.5195387","24.7172157","Kreisā","","Ciema iela","Limbažu novads","Limbažu pilsēta","Limbaži"
"218","Ciema iela","15381","5722","57.5197574","24.7171441","Labā","","Ciema iela","Limbažu novads","Limbažu pilsēta","Limbaži"
"219","Dailes iela","15382","5724","57.5142958","24.7159388","Kreisā","","Dailes iela","Limbažu novads","Limbažu pilsēta","Limbaži"
"220","Sporta iela","15383","5740","57.5080420","24.7113842","Kreisā","","Sporta iela","Limbažu novads","Limbažu pilsēta","Limbaži"
"221","Sporta iela","15384","5740","57.5090260","24.7095091","Labā","","Sporta iela","Limbažu novads","Limbažu pilsēta","Limbaži"
"222","Uzvaras iela","15385","5745","56.7772929","24.6486079","Kreisā","","Uzvaras iela","Ogres novads","Ogresgala pagasts","Ciemupe"
"223","Vizbuļu iela","15386","5747","56.7986172","24.6339242","Kreisā","","Lazdu gatve","Ogres novads","Ogres pilsēta","Ogre"
"224","Jaunzemju iela","15387","5748","56.8592470","24.3723210","Kreisā","","Dienvidu iela","Salaspils novads","Salaspils pilsēta","Salaspils"
"225","Jaunzemju iela","15388","5748","56.8593470","24.3714620","Labā","","Dienvidu iela","Salaspils novads","Salaspils pilsēta","Salaspils"
"226","Atoms","15389","5749","56.8602120","24.3660740","Kreisā","","Dienvidu iela","Salaspils novads","Salaspils pilsēta","Salaspils"
"227","Atoms","15390","5749","56.8604650","24.3651630","Labā","","Dienvidu iela","Salaspils novads","Salaspils pilsēta","Salaspils"
"229","Ābeļu iela","15392","5753","56.8565530","24.3546889","Labā","","Ābeļu iela","Salaspils novads","Salaspils pilsēta","Salaspils"
"230","Ābeļu iela","15393","5753","56.8565668","24.3552381","Kreisā","","Gaismas iela","Salaspils novads","Salaspils pilsēta","Salaspils"
"231","b/n","15394","","56.8692421","24.3498358","Labā","","Meža iela","Salaspils novads","Salaspils pilsēta","Salaspils"
"232","Reaktors","15395","7366","56.8684190","24.3853683","Labā","","Miera iela","Salaspils novads","Salaspils pilsēta","Salaspils"
"233","Pamatskola","15396","5758","56.8558904","24.3351568","Labā","","Zinību iela","Salaspils novads","Salaspils pilsēta","Salaspils"
"237","PII Zeltrīti","15400","5769","56.8899591","24.0506797","Labā","","Vecozolu iela","Mārupes novads","","Tīraine"
"238","Oškalnu darbnīca","15401","5611","56.9156465","24.6079940","Kreisā","","","Ropažu novads","","Kākciems"
"239","Oškalnu darbnīca","15402","5611","56.9159426","24.6088042","Labā","","","Ropažu novads","","Kākciems"
"240","Pils iela","15403","5776","57.1577144","24.8519416","Kreisā","","Pils iela","Siguldas novads","Siguldas pilsēta","Sigulda"
"241","Pils iela","15404","5776","57.1576341","24.8517184","Labā","","Pils iela","Siguldas novads","Siguldas pilsēta","Sigulda"
"242","Attekas iela","15405","5790","57.0730740","24.3326200","Labā","","Attekas iela","Ādažu novads","","Ādaži"
"250","Rembates parks","14418","3711","56.7184704","24.7983233","Labā","A6","","Lielvārdes novads","Lielvārdes pilsēta","Lielvārde"
"251","Rembates parks","14419","3711","56.7186281","24.7965737","Kreisā","A6","","Lielvārdes novads","Lielvārdes pilsēta","Lielvārde"
"252","Laivu iela","14420","759","56.7215918","24.7795971","Labā","A6","","Lielvārdes novads","Lielvārdes pilsēta","Lielvārde"
"253","Laivu iela","14421","759","56.7218708","24.7780058","Kreisā","A6","","Lielvārdes novads","Lielvārdes pilsēta","Lielvārde"
"254","b/n","14654","3975","56.9549457","23.0859618","Kreisā","A10","","Tukuma novads","Tumes pagasts",""
"255","b/n","14655","3975","56.9555882","23.0847415","Labā","A10","","Tukuma novads","Tumes pagasts",""
"256","Doles sala","14156","3254","56.8499411","24.2632939","Kreisā","V26","","Salaspils novads","Salaspils pagasts",""
"257","Doles sala","14157","3254","56.8500620","24.2615000","Labā","V26","","Salaspils novads","Salaspils pagasts",""
"258","DIS Gaujmala","15413","6182","57.1266089","24.3129746","Labā","","Dzirnupes iela","Ādažu novads","","Siguļi"
"259","Aprūpes centrs Vidzeme","15414","7454","56.9831006","24.6264823","Kreisā","V75","","Ropažu novads","",""
"264","Kalnkauguri","14741","4092","57.5858258","24.5980814","Kreisā","V140","","Limbažu novads","Viļķenes pagasts",""
"265","Kalnkauguri","14742","4092","57.5864081","24.5986819","Labā","V140","","Limbažu novads","Viļķenes pagasts",""
"266","Skola","14743","4094","57.6114776","24.5956599","Kreisā","V141","","Limbažu novads","Viļķenes pagasts",""
"267","Skola","14744","4094","57.6116483","24.5951868","Labā","V141","","Limbažu novads","Viļķenes pagasts",""
"268","Pietes","14745","4095","57.6645562","24.4961221","Kreisā","V142","","Limbažu novads","Viļķenes pagasts",""
"269","Pietes","14746","4095","57.6657142","24.4952741","Labā","V142","","Limbažu novads","Viļķenes pagasts",""
"278","Krūmiņi","13426","1789","56.7629398","24.9278289","Kreisā","V971","","Lielvārdes novads","Lēdmanes pagasts",""
"279","Pilskalna iela","14226","3376","56.9706980","23.1357340","Kreisā","V1442","Talsu iela","Tukuma novads","Tukuma pilsēta","Tukums"
"280","Kandavas iela","14227","3377","56.9625756","23.1108041","Labā","V1443","Kandavas iela","Tukuma novads","Tukuma pilsēta","Tukums"
"281","Kandavas iela","14228","3377","56.9626755","23.1105317","Kreisā","V1443","Kandavas iela","Tukuma novads","Tukuma pilsēta","Tukums"
"282","b/n","14162","3259","56.7522580","22.9332281","Kreisā","V1458","","Jaunpils novads","Jaunpils pagasts",""
"283","b/n","14163","3259","56.7525793","22.9316541","Labā","V1458","","Jaunpils novads","Jaunpils pagasts",""
"292","Ledus halle","13857","2714","56.8251459","24.5987872","Labā","P5","","Ikšķiles novads","Tīnūžu pagasts","Aizupes"
"293","Ledus halle","13858","2714","56.8256221","24.5987677","Kreisā","P5","","Ikšķiles novads","Tīnūžu pagasts","Aizupes"
"294","b/n","15303","271","56.8002354","24.8613758","Kreisā","P8","","Ķeguma novads","Rembates pagasts",""
"295","b/n","15304","271","56.8004089","24.8604122","Labā","P8","","Ķeguma novads","Rembates pagasts",""
"296","Rudzīši","14515","3835","57.5123799","24.7545086","Kreisā","","Cēsu iela","Limbažu novads","Limbažu pilsēta",""
"297","Rudzīši","14516","3835","57.5123934","24.7533740","Labā","","Cēsu iela","Limbažu novads","Limbažu pilsēta",""
"298","Mehanizācijas iela","14848","4389","57.5122908","24.7314317","Kreisā","P11","Cēsu iela","Limbažu novads","Limbažu pilsēta","Limbaži"
"299","Mehanizācijas iela","14849","4389","57.5123697","24.7315571","Labā","P11","Cēsu iela","Limbažu novads","Limbažu pilsēta","Limbaži"
"300","Ozolaines iela","14850","4391","57.5127360","24.6908136","Kreisā","P12","","Limbažu novads","Limbažu pilsēta","Limbaži"
"301","Stacijas iela","14851","4393","57.5227213","24.7304544","Kreisā","P13","Stacijas iela","Limbažu novads","Limbažu pilsēta","Limbaži"
"302","Stacijas iela","14852","4393","57.5231935","24.7311557","Labā","P13","Stacijas iela","Limbažu novads","Limbažu pilsēta","Limbaži"
"303","b/n","14229","3378","56.9527891","23.1819410","Kreisā","P98","Jelgavas iela","Tukuma novads","Tukuma pilsēta","Tukums"
"304","b/n","14255","3430","57.0319577","22.7895105","Labā","P109","Zemītes iela","Kandavas novads","Kandavas pilsēta","Kandava"
"305","b/n","14256","3433","57.0422953","22.7851113","Labā","P130","","Kandavas novads","Kandavas pilsēta",""
"306","Spartaka iela","14230","231","56.9723731","23.1567986","Kreisā","P131","Raudas iela","Tukuma novads","Tukuma pilsēta","Tukums"
"307","b/n1","15417","5830","56.9714802","23.1503056","Kreisā","","Kurzemes iela","Tukuma novads","Tukuma pilsēta","Tukums"
"308","Pūpolu iela","15418","5836","56.9702514","23.1903895","Kreisā","","L. Dzelzceļa iela","Tukuma novads","Tukuma pilsēta","Tukums"
"309","Pūpolu iela","15419","5836","56.9704109","23.1906459","Labā","","L. Dzelzceļa iela","Tukuma novads","Tukuma pilsēta","Tukums"
"310","Taisnā iela","15420","5840","56.9544409","23.1243932","Kreisā","","Tehnikas iela","Tukuma novads","Tukuma pilsēta","Tukums"
"311","Taisnā iela","15421","5840","56.9546230","23.1240995","Labā","","Tehnikas iela","Tukuma novads","Tukuma pilsēta","Tukums"
"312","Tūjas iela","15422","5842","57.3753570","24.4082923","Kreisā","","Tūjas iela","Limbažu novads","Skultes pagasts","Vārzas"
"313","Irbes iela","15423","651","57.5230643","24.7176515","Labā","","Ciema iela","Limbažu novads","Limbažu pilsēta","Limbaži"
"314","Robežu iela","15424","5843","57.5240874","24.7180075","Kreisā","","Ciema iela","Limbažu novads","Limbažu pilsēta","Limbaži"
"315","Stūrīšu gatve","15425","5844","56.8019070","24.6295496","Kreisā","","Lazdu gatve","Ogres novads","Ogres pilsēta","Ogre"
"316","Rūķu iela","15426","5848","56.8865397","24.3358992","Labā","","Miglu iela","Salaspils novads","Salaspils pilsēta",""
"317","Rūķu iela","15427","5848","56.8871522","24.3358266","Kreisā","","Lejasrūķu iela","Salaspils novads","Salaspils pilsēta",""
"318","Veczariņu iela","15428","5851","56.8895218","24.0577329","Kreisā","","Vecozolu iela","Mārupes novads","","Mārupe"
"319","Veczariņu iela","15429","5851","56.8897159","24.0561392","Labā","","Vecozolu iela","Mārupes novads","","Mārupe"
"322","Ķimši","13853","2702","57.5352738","24.5599725","Kreisā","V140","","Limbažu novads","Viļķenes pagasts",""
"323","Ķimši","13854","2702","57.5358555","24.5590743","Labā","V140","","Limbažu novads","Viļķenes pagasts",""
"328","Raudas iela","15132","4995","56.9759933","23.1551663","Kreisā","P131","Raudas iela","Tukuma novads","Tukuma pilsēta","Tukums"
"329","Pārogres gatve","15430","5853","56.7956913","24.6335210","Kreisā","","Pārogres gatve","Ogres novads","Ogres pilsēta","Ogre"
"330","Pagrieziens uz Aconi","15431","5861","56.8929280","24.3073393","Labā","","C4 Salaspils mamoriāls-TEC 2","Salaspils novads","Salaspils pagasts",""
"331","Pagrieziens uz Aconi","15432","5861","56.8937070","24.3075557","Kreisā","","C4 Salaspils mamoriāls-TEC 2","Salaspils novads","Salaspils pagasts",""
"334","Pīlādžu iela","13310","1403","56.9824132","23.1549283","Kreisā","P131","Raudas iela","Tukuma novads","Tukuma pilsēta","Tukums"
"335","Pavārkalns","15433","215","56.9710170","23.1375890","Labā","","Kurzemes iela","Tukuma novads","Tukuma pilsēta","Tukums"
"336","Acones dārzs","15434","5865","56.8997679","24.3036035","Labā","","C4 Salaspils mamoriāls-TEC 2","Salaspils novads","Salaspils pagasts",""
"337","Acones dārzs","15435","5865","56.8989312","24.3040359","Kreisā","","C4 Salaspils mamoriāls-TEC 2","Salaspils novads","Salaspils pagasts",""
"345","Babītes stacija","15438","5875","56.9581799","23.9534741","Kreisā","","Bērzu iela","Mārupes novads","","Babīte"
"346","Bajāri","15104","4978","56.7875717","21.4927821","Labā","V1192","","Aizputes novads","Lažas pagasts",""
"347","Bajāri","15105","4978","56.7877745","21.4931975","Kreisā","V1192","","Aizputes novads","Lažas pagasts",""
"348","Bajāri","13825","2652","56.4399952","23.8171300","Kreisā","V1072","","Jelgavas novads","Sesavas pagasts","Bajāri"
"349","Bajāri","13826","2652","56.4401308","23.8169667","Labā","V1072","","Jelgavas novads","Sesavas pagasts","Bajāri"
"350","Baka","14194","3339","56.8436762","27.1464525","Kreisā","V489","","Balvu novads","Bērzpils pagasts",""
"351","Baka","14195","3339","56.8437081","27.1465530","Labā","V489","","Balvu novads","Bērzpils pagasts",""
"352","Balborži","14730","4069","56.3494005","26.9361550","Labā","V577","Miera iela 2","Riebiņu novads","Silajāņu pagasts","Silajāņi"
"353","Balborži","14731","4069","56.3495965","26.9360321","Kreisā","V577","Miera iela 2","Riebiņu novads","Silajāņu pagasts","Silajāņi"
"354","Baldone","13503","1921","56.9922715","27.0432585","Kreisā","P36","","Rugāju novads","Rugāju pagasts",""
"355","Baldone","13504","1921","56.9935884","27.0422238","Labā","P36","","Rugāju novads","Rugāju pagasts",""
"356","Baldones","13637","2215","56.5126993","23.2558527","Labā","V1122","","Dobeles novads","Penkules pagasts","Baldonas"
"357","Balgales pagrieziens","14489","3800","57.0885729","22.8008152","Labā","V1434","","Kandavas novads","Kandavas pagasts",""
"358","Bāliņi","13128","931","57.1914475","25.1914288","Labā","V315","","Amatas novads","Amatas pagasts",""
"359","Bāliņi","13129","931","57.1915359","25.1906926","Kreisā","V315","","Amatas novads","Amatas pagasts",""
"360","Baloži","15120","4987","57.5885826","25.5397078","Kreisā","A3","","Burtnieku novads","Valmieras pagasts",""
"361","Baloži","15121","4987","57.5890724","25.5419313","Labā","A3","A3 Lielauši","Burtnieku novads","Valmieras pagasts","Ziedonis"
"362","Baloži","13156","969","56.8760993","24.1221597","Labā","V3","","Ķekavas novads","Baložu pilsēta",""
"363","Baloži","13157","969","56.8764612","24.1231736","Kreisā","V3","","Ķekavas novads","Baložu pilsēta",""
"364","Baloži","13767","2515","57.4161830","27.1812318","Labā","V400","","Alūksnes novads","Jaunalūksnes pagasts",""
"365","Baloži","13768","2515","57.4162138","27.1812087","Kreisā","V400","","Alūksnes novads","Jaunalūksnes pagasts",""
"366","Baloži","14326","3594","56.8631200","22.4045062","Labā","V1149","","Saldus novads","Šķēdes pagasts",""
"367","Baloži","13476","1897","56.7101021","21.7900650","Labā","V1295","","Kuldīgas novads","Laidu pagasts",""
"368","Baložu skola","15439","5877","56.8748685","24.1188586","Kreisā","","Rīgas iela","Ķekavas novads","Baložu pilsēta","Baloži"
"369","Baložu stacija","14635","3961","56.8453168","24.0462022","Labā","V13","","Olaines novads","Olaines pagasts","Stūnīši"
"370","Baložu stacija","14636","3961","56.8459159","24.0471121","Kreisā","V13","","Olaines novads","Olaines pagasts","Stūnīši"
"371","Baltais flīģelis","15440","5879","57.1526336","24.8480068","Labā","","Ausekļa iela","Siguldas novads","Siguldas pilsēta","Sigulda"
"372","Baltais flīģelis","15441","5879","57.1518035","24.8447996","Kreisā","","Šveices iela","Siguldas novads","Siguldas pilsēta","Sigulda"
"373","Baltaiskrogs","14666","3986","56.0703508","26.5192559","Labā","V678","","Daugavpils novads","Kalupes pagasts",""
"374","Baltaiskrogs","14667","3986","56.0706693","26.5203096","Kreisā","V678","","Daugavpils novads","Kalupes pagasts",""
"375","Baltceriņi","14145","3218","56.4999198","21.1783586","Kreisā","P113","","Grobiņas novads","Grobiņas pagasts",""
"376","Baltceriņi","14146","3218","56.5003340","21.1781910","Labā","P113","","Grobiņas novads","Grobiņas pagasts",""
"377","Baltina","15000","4845","56.6368677","27.0265920","Labā","V561","","Rēzeknes novads","Rikavas pagasts",""
"378","Baltina","15001","4845","56.6378931","27.0262515","Kreisā","V561","","Rēzeknes novads","Rikavas pagasts",""
"379","Banga","15442","5880","57.5084678","22.7953638","Labā","P131","Jūras iela ","Rojas novads","","Roja"
"380","Banga","15443","5880","57.5080927","22.7966787","Kreisā","P131","Jūtas iela","Rojas novads","","Roja"
"381","Baraukši","14984","4812","56.4656290","27.7386658","Labā","P49","","Ludzas novads","Ņukšu pagasts",""
"382","Baraukši","14985","4812","56.4658946","27.7393296","Kreisā","P49","","Ludzas novads","Ņukšu pagasts",""
"383","Bārdaskrogs","7553","164","57.5708127","26.9550200","Labā","V381","","Alūksnes novads","Veclaicenes pagasts",""
"384","Barisova","14164","3260","56.3366212","27.7813971","Labā","P49","","Ludzas novads","Pildas pagasts",""
"385","Barisova","14165","3260","56.3370310","27.7815261","Kreisā","P49","","Ludzas novads","Pildas pagasts",""
"386","Bauriški","13278","1351","55.9872218","27.2013218","Kreisā","V642","","Krāslavas novads","Kombuļu pagasts",""
"387","Bauriški","13279","1351","55.9872415","27.2021013","Labā","V642","","Krāslavas novads","Kombuļu pagasts",""
"389","Baznīca","15444","5881","56.8577105","24.3308723","Kreisā","","Enerģētiķu iela","Salaspils novads","Salaspils pilsēta","Salaspils"
"390","Baznīca","15445","5881","56.8584378","24.3304877","Labā","","Enerģētiķu iela","Salaspils novads","Salaspils pilsēta","Salaspils"
"391","Baznīca","14233","3387","56.1973584","26.5222091","Kreisā","V751","Padomju iela 6","Vārkavas novads","Upmalas pagasts","Upmala"
"392","Baznīca","14234","3387","56.1974126","26.5219455","Labā","V751","Padomju iela 6","Vārkavas novads","Upmalas pagasts","Upmala"
"393","Baznīca","14801","4320","56.7422823","24.3922178","Labā","","Rīgas iela","Ķekavas novads","",""
"394","Baznīca","14802","4320","56.7423410","24.3938648","Kreisā","","Rīgas iela","Ķekavas novads","",""
"395","Baznīca","15096","4969","56.5316682","23.4955295","Labā","V1098","","Jelgavas novads","Zaļenieku pagasts",""
"396","Baznīca","15097","4969","56.5316884","23.4954391","Kreisā","V1098","","Jelgavas novads","Zaļenieku pagasts",""
"397","Baznīckalns","13635","2210","57.5241691","25.2985075","Kreisā","V213","","Kocēnu novads","Kocēnu pagasts",""
"398","Baznīckalns","13636","2210","57.5242730","25.2986422","Labā","V213","","Kocēnu novads","Kocēnu pagasts",""
"399","BD Pasaciņa","15446","5882","56.5410399","27.7288304","Labā","","Latgales iela 171","Ludzas novads","Ludzas pilsēta","Ludza"
"400","Brīvkalni","13300","1379","56.9239373","23.9140784","Labā","A5","","Mārupes novads","Babītes pagasts","Brīvkalni"
"401","Brīvkalni","13301","1379","56.9282300","23.9161080","Kreisā","A5","","Mārupes novads","Babītes pagasts","Brīvkalni"
"402","Bekas","13789","2578","57.6648079","25.2507835","Kreisā","V112","","Burtnieku novads","Burtnieku pagasts",""
"403","Bekas","13790","2578","57.6649816","25.2511269","Labā","V112","","Burtnieku novads","Burtnieku pagasts",""
"404","Bēkmaņi","14334","3606","57.5581591","25.2830288","Kreisā","V215","","Kocēnu novads","Kocēnu pagasts",""
"405","Bēkmaņi","14335","3606","57.5582840","25.2828518","Labā","V215","","Kocēnu novads","Kocēnu pagasts",""
"406","Belomoiki","14296","3550","56.4493756","27.7249913","Labā","P49","","Ludzas novads","Ņukšu pagasts",""
"407","Belomoiki","14297","3550","56.4495895","27.7251019","Kreisā","P49","","Ludzas novads","Ņukšu pagasts",""
"408","Beltas","14422","3712","57.1414673","22.6605465","Labā","V1399","","Talsu novads","Virbu pagasts",""
"409","Beltas","14423","3712","57.1415250","22.6605373","Kreisā","V1399","","Talsu novads","Virbu pagasts","Lēdas"
"410","Beļauski","14508","3820","56.8444116","27.1084887","Kreisā","V489","Skolas iela 7","Balvu novads","Bērzpils pagasts","Bērzpils"
"411","Beļauski","14509","3820","56.8445379","27.1081708","Labā","V489","Skolas iela 7","Balvu novads","Bērzpils pagasts","Bērzpils"
"412","Beņķi","13875","2732","57.5928329","25.2918181","Kreisā","V216","","Kocēnu novads","Kocēnu pagasts",""
"413","Beņķi","13876","2732","57.5928521","25.2916966","Labā","V216","","Kocēnu novads","Kocēnu pagasts",""
"414","Berezovka","14372","3651","55.9866542","26.8760347","Labā","V687","","Daugavpils novads","Biķernieku pagasts",""
"415","Berezovka","14373","3651","55.9867975","26.8762779","Kreisā","V687","","Daugavpils novads","Biķernieku pagasts",""
"416","Beirāni","10640","260","56.6769220","26.9662800","Kreisā","V592","","Rēzeknes novads","Nagļu pagasts",""
"417","Bernāni","10757","261","56.2834431","26.5938785","Kreisā","V752","","Līvānu novads","Sutru pagasts",""
"418","Bernāni","10655","261","56.2835783","26.5931598","Labā","V752","","Līvānu novads","Sutru pagasts",""
"419","Bērnu nams","15213","5216","56.8800928","22.9903701","Kreisā","V1452","","Tukuma novads","Irlavas pagasts","Irlava"
"420","Bērnu nams","15214","5216","56.8802488","22.9905478","Labā","V1452","","Tukuma novads","Irlavas pagasts","Irlava"
"421","Bērnudārzs","15447","5891","57.2237859","22.5259532","Kreisā","","Ozolu iela ","Talsu novads","Ģibuļu pagasts","Pastende"
"422","Bērnudārzs","14321","3586","56.7426166","25.7702796","Kreisā","V916","","Pļaviņu novads","Vietalvas pagasts","Vietalva"
"423","Bērnudārzs","14322","3586","56.7428919","25.7707242","Labā","V916","","Pļaviņu novads","Vietalvas pagasts","Vietalva"
"424","Bērnudārzs","15448","5892","57.3290471","23.1267074","Kreisā","P131","Lielā iela ","Mērsraga novads","","Mērsrags"
"425","Bērnudārzs","15449","5892","57.3297175","23.1266997","Labā","P131","Lielā iela ","Mērsraga novads","","Mērsrags"
"426","Bērnudārzs Lienīte","15450","5893","56.8983216","24.0462784","Labā","","Mārupītes gatve","Mārupes novads","","Mārupe"
"427","Bērnudārzs Lienīte","15451","5893","56.8999512","24.0470439","Kreisā","","Mārupītes gatve","Mārupes novads","","Mārupe"
"428","Bēršas","13292","1362","57.6137411","24.7242362","Labā","V115","","Limbažu novads","Viļķenes pagasts",""
"429","Bēršas","13293","1362","57.6138540","24.7241679","Kreisā","V115","","Limbažu novads","Viļķenes pagasts",""
"430","Bērzene","15267","323","56.0305414","26.9023979","Labā","V676","","Daugavpils novads","Ambeļu pagasts",""
"431","Bērzene","11794","323","56.0306829","26.9017503","Kreisā","V676","","Daugavpils novads","Ambeļu pagasts",""
"432","Bērzi","14305","3557","57.2956610","25.2483088","Labā","V291","Līgatnes iela 85","Amatas novads","Amatas pagasts","Cēsis"
"433","Bērzi","14306","3557","57.2956832","25.2484462","Kreisā","V291","Līgatnes iela 85","Amatas novads","Amatas pagasts","Cēsis"
"434","Bērzi","13740","2463","56.3532208","24.9816265","Labā","V932","","Neretas novads","Mazzalves pagasts",""
"435","Bērzi","14452","3751","56.3913509","21.6193046","Labā","P114","","Priekules novads","Gramzdas pagasts",""
"436","Bērzi","14453","3751","56.3916408","21.6195797","Kreisā","P114","","Priekules novads","Gramzdas pagasts",""
"437","Bērziņi","13219","1128","56.8203662","25.6872605","Kreisā","V885","","Ērgļu novads","Sausnējas pagasts",""
"438","Bērziņi","13220","1128","56.8204746","25.6869724","Labā","V885","","Ērgļu novads","Sausnējas pagasts",""
"439","Bērziņi","13064","795","57.8026537","25.9492007","Kreisā","V236","","Valkas novads","Valkas pagasts",""
"440","Bērziņi","13065","795","57.8026924","25.9492609","Labā","V236","","Valkas novads","Valkas pagasts",""
"441","Bērziņi","15116","4985","57.5818643","25.7556555","Labā","P25","","Strenču novads","Plāņu pagasts",""
"442","Bērziņi","15117","4985","57.5810366","25.7569624","Kreisā","P25","","Strenču novads","Plāņu pagasts","Jaunklidzis"
"443","Bērzlapes","14030","2927","57.5246485","25.8481175","Kreisā","P25","","Strenču novads","Plāņu pagasts",""
"444","Bērzlapes","14031","2927","57.5250014","25.8483770","Labā","P25","","Strenču novads","Plāņu pagasts",""
"445","Bērzu iela","15452","5895","56.8757265","23.9386861","Labā","","Ozolu iela","Mārupes novads","","Jaunmārupe"
"446","Bērzu iela","15453","5902","56.9599742","23.7024505","Labā","","Mellužu prospekts","Jūrmala","",""
"447","Bērzu iela","15454","5902","56.9601803","23.7030541","Kreisā","","Mellužu prospekts","Jūrmala","",""
"448","Bērzupe","14511","3825","56.2892119","26.3586974","Kreisā","V682","","Līvānu novads","Rožupes pagasts",""
"449","Bērzupe","14512","3825","56.2898215","26.3585550","Labā","V682","","Līvānu novads","Rožupes pagasts",""
"450","Berževka","8263","179","56.7715495","27.8335363","Labā","P50","","Kārsavas novads","Malnavas pagasts",""
"451","Beta","15455","5906","56.6056921","25.2633091","Labā","","Jaunceltnes iela 27","Aizkraukles novads","Aizkraukles pilsēta","Aizkraukle"
"452","Beta","15456","5906","56.6051054","25.2640007","Kreisā","","Jaunceltnes iela 38","Aizkraukles novads","Aizkraukles pilsēta","Aizkraukle"
"453","Atmodas iela","15457","5919","57.1041690","24.6830355","Kreisā","","Atmodas iela","Siguldas novads","","Inčukalns"
"454","Bez nosaukuma","14149","3222","56.0626958","27.1197715","Kreisā","V641","","Aglonas novads","Grāveru pagasts",""
"455","Bez nosaukuma","13677","2329","55.9550384","26.1288957","Labā","V701","Stendera iela 9","Ilūkstes novads","Eglaines pagasts","Eglaine"
"458","Bez nosaukuma","15301","","56.6388615","27.5957914","Kreisā","V499","","Kārsavas novads","Mežvidu pagasts",""
"459","Bez nosaukuma","15302","","56.6393364","27.5952534","Labā","V499","","Kārsavas novads","Mežvidu pagasts",""
"460","Dzērvītes","14643","3967","57.2165210","24.6975900","Kreisā","P9","","Siguldas novads","",""
"461","Dzērvītes","14644","3967","57.2171310","24.6976210","Labā","P9","","Siguldas novads","",""
"462","Bez nosaukuma","13266","1328","55.9738122","26.3067271","Labā","P71","","Ilūkstes novads","Ilūkstes pilsēta","Ilūkste"
"463","Bez nosaukuma","13267","1328","55.9738586","26.3068547","Kreisā","P71","","Ilūkstes novads","Ilūkstes pilsēta","Ilūkste"
"464","Bez nosaukuma","13268","1329","55.9827103","26.2893114","Labā","P72","Raiņa iela 43","Ilūkstes novads","Ilūkstes pilsēta","Ilūkste"
"465","Bez nosaukuma","13269","1329","55.9829843","26.2893931","Kreisā","P72","Raiņa iela 44A","Ilūkstes novads","Ilūkstes pilsēta","Ilūkste"
"467","Kalndunduri","14353","3625","57.1980182","24.7049570","Kreisā","P9","","Siguldas novads","",""
"468","Kalndunduri","14354","3625","57.1985850","24.7049060","Labā","P9","","Siguldas novads","",""
"469","Olaines 2. vidusskola","15458","5920","56.7824880","23.9320123","Labā","","Zemgales iela","Olaines novads","Olaines pilsēta","Olaine"
"470","Dzērvenītes iela","15459","5921","56.7798440","23.9320930","Kreisā","","Stacijas iela","Olaines novads","Olaines pilsēta","Olaine"
"471","Stacijas iela","15460","5923","56.7814383","23.9357896","Kreisā","","Stacijas iela","Olaines novads","Olaines pilsēta","Olaine"
"472","Koledža","15461","5924","56.7876055","23.9430930","Labā","","Zemgales iela","Olaines novads","Olaines pilsēta","Olaine"
"473","Dzelzceļnieku ciems","14374","3652","56.8060940","23.9923270","Kreisā","A8","","Olaines novads","Olaines pagasts","Jaunolaine"
"474","Dzelzceļnieku ciems","14375","3652","56.8069432","23.9933470","Labā","A8","","Olaines novads","Olaines pagasts","Jaunolaine"
"476","Rīgas iela","15462","5928","56.7918278","23.9464890","Kreisā","","Zemgales iela","Olaines novads","Olaines pilsēta","Olaine"
"477","Rīgas iela","15463","5928","56.7920887","23.9467877","Labā","","Zemgales iela","Olaines novads","Olaines pilsēta","Olaine"
"478","Olaines 1. vidusskola","15464","5931","56.7882269","23.9407410","Kreisā","","Zeiferta iela","Olaines novads","Olaines pilsēta","Olaine"
"479","Zeiferta iela","15465","5933","56.7894275","23.9376819","Labā","","Zeiferta iela","Olaines novads","Olaines pilsēta","Olaine"
"480","Zeiferta iela","15466","5933","56.7895017","23.9376064","Kreisā","","Zeiferta iela","Olaines novads","Olaines pilsēta","Olaine"
"481","Jelgavas iela","15467","5935","56.7880288","23.9347189","Kreisā","","Jelgavas iela","Olaines novads","Olaines pilsēta","Olaine"
"482","Jelgavas iela","15468","5935","56.7884314","23.9353104","Labā","","Jelgavas iela","Olaines novads","Olaines pilsēta","Olaine"
"483","Veselības iela","15469","5937","56.7856308","23.9351114","Labā","","Veselības iela","Olaines novads","Olaines pilsēta","Olaine"
"484","Veselības iela","15470","5937","56.7860032","23.9343731","Kreisā","","Veselības iela","Olaines novads","Olaines pilsēta","Olaine"
"485","Pašvaldība","15471","5952","56.7842079","23.9362863","Kreisā","","Zemgales iela","Olaines novads","Olaines pilsēta","Olaine"
"486","Pašvaldība","15472","5952","56.7842944","23.9367725","Labā","","Zemgales iela","Olaines novads","Olaines pilsēta","Olaine"
"487","Bēzlapes","14951","4722","55.9857117","26.3009744","Kreisā","V719","Zemgales iela 37","Ilūkstes novads","Ilūkstes pilsēta","Ilūkste"
"488","Bēzlapes","14952","4722","55.9860368","26.3009858","Labā","V719","Zemgales iela 37","Ilūkstes novads","Ilūkstes pilsēta","Ilūkste"
"489","Bibliotēka","15473","5954","56.8554685","24.3313779","Kreisā","","Enerģētiķu iela","Salaspils novads","Salaspils pilsēta","Salaspils"
"490","Bibliotēka","15474","5954","56.8558334","24.3310202","Labā","","Enerģētiķu iela","Salaspils novads","Salaspils pilsēta","Salaspils"
"491","Bieranti","14971","4776","56.5160735","23.8247244","Kreisā","V1054","","Jelgavas novads","Vircavas pagasts",""
"492","Bieranti","14972","4776","56.5160600","23.8247244","Labā","V1054","","Jelgavas novads","Vircavas pagasts",""
"493","Bikšu kapi","15475","5955","56.3060588","24.5252102","Labā","","","Bauskas novads","Brunavas pagasts",""
"494","Bileiķi","15030","4864","56.3867611","22.8958691","Labā","V1114","","Saldus novads","Vadakstes pagasts",""
"495","Bindari","14147","3220","56.4034370","26.7042527","Labā","V738","","Preiļu novads","Saunas pagasts",""
"496","Bindari","14148","3220","56.4040689","26.7033232","Kreisā","V738","","Preiļu novads","Saunas pagasts",""
"497","Bīriņu iela","15476","5957","57.2671763","24.4141873","Kreisā","V101","Ainažu iela","Saulkrastu novads","Saulkrastu pilsēta","Saulkrasti"
"498","Birstalas","13859","2720","56.3028588","21.3282587","Labā","P113","","Rucavas novads","Dunikas pagasts",""
"499","Birstalas","13860","2720","56.3029922","21.3284270","Kreisā","P113","","Rucavas novads","Dunikas pagasts",""
"500","Birzgaļi","14332","3605","57.3158678","24.9732239","Kreisā","V280","","Pārgaujas novads","Straupes pagasts",""
"501","Birzgaļi","14333","3605","57.3159583","24.9732306","Labā","V280","","Pārgaujas novads","Straupes pagasts",""
"502","Birzgaļi 1","13844","2677","57.5995141","25.1147218","Kreisā","V166","","Kocēnu novads","Dikļu pagasts",""
"503","Birzgaļi 1","13845","2677","57.5996990","25.1142177","Labā","V166","","Kocēnu novads","Dikļu pagasts",""
"504","Birzis","15224","5317","57.4733955","27.1532180","Labā","V390","","Alūksnes novads","Mārkalnes pagasts",""
"505","Birzis","15225","5317","57.4734785","27.1530098","Kreisā","V390","","Alūksnes novads","Mārkalnes pagasts",""
"506","Birzītes","15477","5964","56.7045100","23.9415108","Labā","","","Ozolnieku novads","Cenu pagasts",""
"507","Birzītes","14376","3656","56.7045179","23.9415213","Labā","V28","","Ozolnieku novads","Cenu pagasts",""
"508","Birznieki","13906","2759","57.5727042","24.6633285","Kreisā","P12","","Limbažu novads","Limbažu pagasts",""
"509","Birznieki","13907","2759","57.5731177","24.6633909","Labā","P12","","Limbažu novads","Limbažu pagasts",""
"510","Birznieki","14922","4676","56.7028072","23.3766756","Kreisā","P102","","Dobeles novads","Jaunbērzes pagasts",""
"511","Birznieki","14923","4676","56.7032094","23.3773236","Labā","P102","","Dobeles novads","Jaunbērzes pagasts",""
"512","Biržas iela","15478","5968","56.5409195","27.7109134","Kreisā","","Biržas iela 4","Ludzas novads","Ludzas pilsēta","Ludza"
"513","Biržas iela","15479","5968","56.5406187","27.7106812","Labā","","Raiņa iela 40C","Ludzas novads","Ludzas pilsēta","Ludza"
"514","Biži","14668","3987","56.5376538","27.5091725","Kreisā","V550","","Rēzeknes novads","Lendžu pagasts",""
"515","Biži","14669","3987","56.5377540","27.5097842","Labā","V550","","Rēzeknes novads","Lendžu pagasts",""
"516","Bišu iela","15480","5974","56.9432143","23.4969296","Labā","","Emīla Dārziņa iela","Jūrmala","",""
"517","Bišu iela","15481","5974","56.9437383","23.4977623","Kreisā","","Emīla Dārziņa iela","Jūrmala","",""
"518","Bites","13604","2078","56.7509036","24.1071135","Labā","V7","","Ķekavas novads","Ķekavas pagasts","Plakanciems"
"519","Bites","13605","2078","56.7514785","24.1075459","Kreisā","V7","","Ķekavas novads","Ķekavas pagasts","Plakanciems"
"520","Bites","15283","633","56.3140231","21.0932286","Labā","A11","","Nīcas novads","Nīcas pagasts",""
"521","Blankas","14589","3922","57.9143279","25.0403453","Labā","V164","","Mazsalacas novads","Mazsalacas pagasts",""
"522","Blankas","14590","3922","57.9154207","25.0393852","Kreisā","V164","","Mazsalacas novads","Mazsalacas pagasts",""
"523","Blaumi","13595","2064","57.0445260","27.2354121","Kreisā","P48","","Rugāju novads","Rugāju pagasts",""
"524","Blaumi","13596","2064","57.0448628","27.2349975","Labā","P48","","Rugāju novads","Rugāju pagasts",""
"525","Blāzmas","14693","4012","56.8882000","24.3596470","Labā","V33","","Salaspils novads","Salaspils pagasts",""
"526","Blāzmas iela","15482","5979","56.8216926","24.5893549","Kreisā","","Vidus prospekts","Ogres novads","Ogres pilsēta","Ogre"
"527","Blonti","13568","2036","56.6117500","27.7762509","Kreisā","V506","","Ciblas novads","Blontu pagasts","Blonti"
"528","Blonti","13569","2036","56.6118962","27.7762293","Labā","V506","","Ciblas novads","Blontu pagasts","Blonti"
"529","Blukas","14434","3726","56.6137847","23.7912429","A/V","V1071","Dārza iela 1","Jelgavas novads","Jaunsvirlaukas pagasts","Mežciems"
"530","Blusi","15292","1122","55.9467867","27.5324922","Kreisā","V627","","Krāslavas novads","Robežnieku pagasts",""
"531","Bļodnieki","13170","1020","56.6465728","21.5713016","Labā","V1197","","Durbes novads","Vecpils pagasts",""
"532","Bļodnieki","13171","1020","56.6466539","21.5715633","Kreisā","V1197","","Durbes novads","Vecpils pagasts",""
"533","Boldači","13962","2864","56.3719933","27.7680493","Labā","P49","","Ludzas novads","Pildas pagasts",""
"534","Boldači","13963","2864","56.3726558","27.7677776","Kreisā","P49","","Ludzas novads","Pildas pagasts",""
"535","Borisova","13693","2375","56.5520700","27.3940400","Labā","V567","","Rēzeknes novads","Vērēmu pagasts",""
"536","Borisova","13694","2375","56.5522212","27.3930528","Kreisā","V567","","Rēzeknes novads","Vērēmu pagasts",""
"537","Borovije 2","13618","2171","56.0523833","27.0100965","Kreisā","V636","","Aglonas novads","Šķeltovas pagasts",""
"538","Borovskaja","14121","3130","56.0406768","26.8161604","Labā","V676","","Daugavpils novads","Višķu pagasts",""
"539","Borovskaja","14122","3130","56.0409289","26.8167511","Kreisā","V676","","Daugavpils novads","Višķu pagasts",""
"543","Breķeļi","11798","329","57.5144451","25.8442541","Kreisā","P25","","Strenču novads","Plāņu pagasts",""
"544","Breķeļi","11795","329","57.5150757","25.8442550","Labā","P25","","Strenču novads","Plāņu pagasts",""
"545","Brici","14377","3658","57.1722285","25.7113432","Labā","V325","","Vecpiebalgas novads","Dzērbenes pagasts",""
"546","Brici","14378","3658","57.1725352","25.7113138","Kreisā","V325","","Vecpiebalgas novads","Dzērbenes pagasts",""
"547","Brieži","15037","4870","57.7120577","24.6927717","Labā","V116","","Limbažu novads","Pāles pagasts",""
"548","Brieži","14347","3622","56.5346128","23.2304248","Labā","V1126","Dārza iela 3","Dobeles novads","Naudītes pagasts","Apgulde"
"549","Brieži","14348","3622","56.5351790","23.2304501","Kreisā","V1126","Dārza iela 3","Dobeles novads","Naudītes pagasts","Apgulde"
"550","Brieži","13414","1772","55.8628265","27.1174545","Kreisā","P69","","Krāslavas novads","Kaplavas pagasts",""
"551","Brieži","13415","1772","55.8633962","27.1175790","Labā","P69","","Krāslavas novads","Kaplavas pagasts",""
"552","Brieži","14779","4242","56.3351483","21.3094358","Labā","P113","","Grobiņas novads","Bārtas pagasts",""
"553","Brieži","14780","4242","56.3355461","21.3097602","Kreisā","P113","","Grobiņas novads","Bārtas pagasts",""
"554","Briežu iela","15486","6043","56.9364070","23.6734144","Labā","","Mežmalas iela","Jūrmala","",""
"555","Briežu iela","15487","6043","56.9364718","23.6729729","Kreisā","","Mežmalas iela","Jūrmala","",""
"556","Briežu skola","13244","1202","57.4183581","25.3460520","Kreisā","V190","","Kocēnu novads","Vaidavas pagasts",""
"557","Briežu skola","13245","1202","57.4184821","25.3458593","Labā","V190","","Kocēnu novads","Vaidavas pagasts",""
"558","Brigine","13695","2383","55.7449666","26.5498506","Kreisā","V723","","Daugavpils novads","Demenes pagasts",""
"559","Brigine","13696","2383","55.7451948","26.5496059","Labā","V723","","Daugavpils novads","Demenes pagasts",""
"560","Briški","14916","4667","56.4605665","26.9161948","Labā","V595","","Riebiņu novads","Galēnu pagasts",""
"561","Briški","14917","4667","56.4606248","26.9161545","Kreisā","V595","","Riebiņu novads","Galēnu pagasts",""
"562","Pils","13978","1240","56.7196761","21.5909092","Labā","P112","Liepājas iela","Aizputes novads","Aizputes pilsēta","Aizpute"
"563","Brocēnu krustojums","15276","7416","56.6841154","22.5659159","Labā","V1156","Lielcieceres iela ","Brocēnu novads","Brocēnu pilsēta","Brocéni"
"564","Brusova","14448","3743","56.5679739","27.4614187","Kreisā","V567","","Rēzeknes novads","Lendžu pagasts",""
"565","Brusovanka","13493","1914","55.8243152","26.6597195","Labā","P68","","Daugavpils novads","Laucesas pagasts",""
"566","Brusovanka","13494","1914","55.8246265","26.6587459","Kreisā","P68","","Daugavpils novads","Laucesas pagasts",""
"567","Brūveri","14924","4677","55.9525236","26.2563899","Kreisā","V700","","Ilūkstes novads","Pilskalnes pagasts",""
"568","Brūveri","14925","4677","55.9527719","26.2568580","Labā","V700","","Ilūkstes novads","Pilskalnes pagasts",""
"569","Brūveri","14828","4354","57.1014560","24.5904160","Labā","A2","","Siguldas novads","",""
"570","Brūveri","14829","4354","57.1027180","24.5888690","Kreisā","A2","","Siguldas novads","",""
"571","Brūveri","13673","2326","56.8883062","21.9413778","Labā","V1294","","Kuldīgas novads","Kurmāles pagasts",""
"572","Brūveri","13674","2326","56.8884687","21.9414032","Kreisā","V1294","","Kuldīgas novads","Kurmāles pagasts",""
"573","Brūveri","13570","2038","56.9888501","23.2299267","Kreisā","V1448","","Engures novads","Smārdes pagasts",""
"574","Brūveri","13571","2038","56.9894781","23.2307748","Labā","V1448","","Engures novads","Smārdes pagasts",""
"575","Buki","14119","3113","57.0725555","23.0926562","Labā","V1436","","Tukuma novads","Sēmes pagasts",""
"578","Bukulti","15488","6046","57.0207440","24.2587621","A/V","","Ādažu iela","Ropažu novads","","Bukulti"
"579","Bulduri","13638","2221","56.8030833","23.2969936","Kreisā","V1450","","Tukuma novads","Džūkstes pagasts",""
"580","Bulduri","13639","2221","56.8031617","23.2969768","Labā","V1450","","Tukuma novads","Džūkstes pagasts",""
"581","Būmaņi","13943","2839","56.5614527","23.4961630","Kreisā","V1079","","Jelgavas novads","Zaļenieku pagasts",""
"582","Būmaņi","13944","2839","56.5616672","23.4960180","Labā","V1079","","Jelgavas novads","Zaļenieku pagasts",""
"583","Bumburi","14591","3923","57.2797298","25.3182989","Labā","V294","","Cēsu novads","Vaives pagasts",""
"584","Bumburi","14592","3923","57.2802945","25.3178102","Kreisā","V294","","Cēsu novads","Vaives pagasts",""
"585","Burtnieki","15129","4993","57.3434749","21.6289893","Labā","P122","","Ventspils novads","Tārgales pagasts",""
"586","Burtnieki","15130","4993","57.3442371","21.6288125","Kreisā","P122","","Ventspils novads","Tārgales pagasts",""
"587","Bušovka","13457","1833","56.2818696","26.5445274","Kreisā","V752","","Līvānu novads","Sutru pagasts",""
"588","Bušovka","13458","1833","56.2819674","26.5437150","Labā","V752","","Līvānu novads","Sutru pagasts",""
"589","Caunes","15235","5352","57.4245645","26.2023708","Labā","V248","","Smiltenes novads","Grundzāles pagasts",""
"590","Caunes","15236","5352","57.4250182","26.2031761","Kreisā","V248","","Smiltenes novads","Grundzāles pagasts",""
"591","Ceipji","15489","6048","57.9028788","25.0443460","Labā","V164","","Mazsalacas novads","",""
"592","Ceipji","15490","6048","57.9036183","25.0442864","Kreisā","V164","","Mazsalacas novads","",""
"593","Celmi","14645","3968","57.0422145","24.8286682","Labā","V58","","Siguldas novads","Allažu pagasts",""
"594","Celmi","14646","3968","57.0426384","24.8297007","Kreisā","V58","","Siguldas novads","Allažu pagasts",""
"595","Celmiņi","15060","4894","57.6579095","25.2481119","Kreisā","V112","","Burtnieku novads","Burtnieku pagasts",""
"596","Celmiņi","15061","4894","57.6581214","25.2482185","Labā","V112","","Burtnieku novads","Burtnieku pagasts",""
"597","Celmiņi","15189","5182","56.5010294","24.7147472","Kreisā","P87","","Vecumnieku novads","Valles pagasts","Valle"
"598","Celtnieks","11835","332","56.7072146","24.1130197","Labā","V7","","Olaines novads","Olaines pagasts",""
"599","Celtnieks","11804","332","56.7074881","24.1132538","Kreisā","V7","","Olaines novads","Olaines pagasts",""
"601","Ceļa meistars","15491","6051","56.5119920","25.9280800","Kreisā","A12","Zīlānu iela","Jēkabpils","",""
"602","Ceļa meistars","15492","6051","56.5121302","25.9285991","Labā","A12","Zīlānu iela","Jēkabpils","",""
"603","Ceļinieki","13242","1197","55.8060283","26.5256606","Labā","V674","","Daugavpils novads","Laucesas pagasts",""
"604","Ceļinieki","13243","1197","55.8068555","26.5258002","Kreisā","V674","","Daugavpils novads","Laucesas pagasts",""
"605","Ceļmalas","13928","2814","57.5055474","27.2134580","Labā","V390","","Alūksnes novads","Mārkalnes pagasts",""
"606","Ceļmalas","13929","2814","57.5055510","27.2133550","Kreisā","V390","","Alūksnes novads","Mārkalnes pagasts",""
"607","Ceļmalas","15493","6054","57.2453391","24.4909985","Kreisā","P6","","Sējas novads","",""
"608","Rododendru audzētava","13407","1732","56.9597612","23.9526112","Kreisā","A5","Jūrmalas gatve","Mārupes novads","",""
"609","Ceļu daļa","14832","4360","56.7071915","21.6219376","Labā","P115","P115 ","Aizputes novads","Aizputes pilsēta","Aizpute"
"610","Ceļu daļa","14833","4360","56.7074753","21.6218677","Kreisā","P115","P115 67","Aizputes novads","Aizputes pilsēta","Aizpute"
"611","Cenas","13351","1444","56.7033780","23.8161090","Labā","P100","","Ozolnieku novads","Cenu pagasts",""
"612","Cenas","13352","1444","56.7040442","23.8169422","Kreisā","P100","","Ozolnieku novads","Cenu pagasts",""
"613","Centra laukums","15064","4908","56.3529540","26.1764208","Labā","A6","A6 75","Līvānu novads","Līvānu pilsēta","Līvāni"
"614","Centra laukums","15065","4908","56.3530347","26.1765306","Kreisā","A6","A6 98-102","Līvānu novads","Līvānu pilsēta","Līvāni"
"615","Centrālā slimnīca","15494","9399","56.5530640","21.0916120","Kreisā","","Grīzupes iela","Liepāja","",""
"616","Centrālais laukums","15495","6056","56.6007583","25.2531834","Labā","","Lāčplēša iela 1A","Aizkraukles novads","Aizkraukles pilsēta","Aizkraukle"
"617","Centrālais laukums","15496","6056","56.6007468","25.2555872","Kreisā","","Lāčplēša iela 3A","Aizkraukles novads","Aizkraukles pilsēta","Aizkraukle"
"618","Centrs","15243","5366","56.7191682","21.6042701","Kreisā","P117","Atmodas iela","Aizputes novads","Aizputes pilsēta","Aizpute"
"619","Centrs","15244","5366","56.7193631","21.6043170","Labā","P117","Atmodas iela ","Aizputes novads","Aizputes pilsēta","Aizpute"
"620","Cepļu kalni","14977","4781","57.4837639","26.2139047","Kreisā","V248","","Smiltenes novads","Grundzāles pagasts",""
"621","Cepļu kalni","14978","4781","57.4837765","26.2138693","Labā","V248","","Smiltenes novads","Grundzāles pagasts",""
"622","Cēre","13542","1988","57.1076665","22.8689630","A/V","V1432","","Kandavas novads","Cēres pagasts","Cēre"
"623","Ceriņi","13551","2017","56.6992517","24.0695909","Kreisā","V12","","Olaines novads","Olaines pagasts","Jāņupe"
"624","Ceriņi","13552","2017","56.6993950","24.0685375","Labā","V12","","Olaines novads","Olaines pagasts","Jāņupe"
"625","Ceriņi","13420","1780","57.1589919","25.8563315","Kreisā","V304","","Jaunpiebalgas novads","Zosēnu pagasts",""
"626","Ceriņi","13421","1780","57.1590983","25.8571404","Labā","V304","","Jaunpiebalgas novads","Zosēnu pagasts",""
"627","Ceriņi","14313","3565","56.7486316","25.6097031","Labā","P79","","Kokneses novads","Bebru pagasts",""
"628","Ceriņi","15497","6080","56.5255606","24.0290075","Kreisā","V1082","","Ozolnieku novads","",""
"629","Ceriņi","15498","6080","56.5255867","24.0290025","Labā","V1082","","Ozolnieku novads","",""
"630","Ceriņu dārzs","13353","1446","56.6097165","23.2959026","Kreisā","V1098","Zaļā iela 106","Dobeles novads","Dobeles pilsēta","Dobele"
"631","Ceriņu dārzs","13354","1446","56.6098318","23.2955594","Labā","V1098","Zaļā iela 106","Dobeles novads","Dobeles pilsēta","Dobele"
"632","Cēsu alus","15499","9578","57.3165604","25.3019324","Kreisā","","Eduarda Veidenbauma iela 16","Cēsu novads","Cēsu pilsēta","Cēsis"
"633","Cēsu kalns","13827","2654","57.0445045","24.8374859","Labā","V58","","Siguldas novads","Allažu pagasts",""
"634","Cēsu kalns","13828","2654","57.0449057","24.8388119","Kreisā","V58","","Siguldas novads","Allažu pagasts",""
"635","Cidoniju iela","15500","6082","56.9252777","24.2592179","Kreisā","","Garā iela","Ropažu novads","","Dreiliņi"
"636","Cielavas","14866","4522","56.8950037","23.8032144","Labā","C5","","Mārupes novads","","Cielavas"
"637","Ciem. Sakstagals","13522","1961","56.5347555","27.1432218","Kreisā","V552","","Rēzeknes novads","Sakstagala pagasts","Sakstagals"
"638","Ciemats","13779","2533","56.2005377","26.5033338","Labā","V678","Vītolu iela 1","Vārkavas novads","Upmalas pagasts","Upmala"
"639","Ciemats","13780","2533","56.2012205","26.5026615","Kreisā","V678","Vītolu iela 1","Vārkavas novads","Upmalas pagasts","Upmala"
"641","Cīniju iela","15146","5008","56.8097214","24.6431059","Labā","V967","J.Čakstes prospekts","Ogres novads","Ogres pilsēta","Ogre"
"642","Cīniju iela","15147","5008","56.8098664","24.6423293","Kreisā","V967","J.Čakstes prospekts","Ogres novads","Ogres pilsēta","Ogre"
"643","Ciriša ezers","13908","2769","56.1240294","27.0116301","Kreisā","V762","","Aglonas novads","Aglonas pagasts","Aglona"
"644","Ciriša ezers","13909","2769","56.1243548","27.0118223","Labā","V762","","Aglonas novads","Aglonas pagasts","Aglona"
"645","Cirsenieki","14585","3918","56.3028159","26.1913214","Labā","A6","","Līvānu novads","Jersikas pagasts",""
"646","Cirsenieki","14586","3918","56.3034190","26.1911512","Kreisā","A6","","Līvānu novads","Jersikas pagasts",""
"647","Cirsmas","15502","6086","56.9680660","24.6616612","Kreisā","V66","","Ropažu novads","","Ropaži"
"648","Cirsmas","15503","6086","56.9683206","24.6608548","Labā","V66","","Ropažu novads","","Ropaži"
"649","Cirši","13176","7376","55.9421439","26.7183214","Labā","V686","Skolas iela 23A","Daugavpils novads","Naujenes pagasts","Naujene"
"650","Cirši","13177","7376","55.9421502","26.7181754","Kreisā","V686","Skolas iela 23A","Daugavpils novads","Naujenes pagasts","Naujene"
"651","Cīruļi","13529","1971","57.3735877","22.4780040","Kreisā","V1411","","Talsu novads","Valdgales pagasts","Cīruļi"
"652","CSDD","15504","6088","56.6132116","25.2413462","Kreisā","","Jaunceltnes iela 8","Aizkraukles novads","Aizkraukles pilsēta","Aizkraukle"
"653","CSDD","15505","6088","56.6133666","25.2398661","Labā","","Jaunceltnes iela 8","Aizkraukles novads","Aizkraukles pilsēta","Aizkraukle"
"654","CSDD","15506","6090","56.9503216","23.7638439","Labā","","Slokas iela","Jūrmala","",""
"655","CSDD","15507","6090","56.9503605","23.7632548","Kreisā","","Slokas iela","Jūrmala","",""
"656","CSDD","13038","744","56.6307480","23.2635040","Labā","P97","","Dobeles novads","Dobeles pilsēta","Dobele"
"657","CSDD","13039","744","56.6355848","23.2595343","Kreisā","P97","","Dobeles novads","Dobeles pilsēta","Dobele"
"658","Jēkabpils (Cukurfabrikas iela)","15960","6598","56.5172610","25.8540050","Labā","A6","Rīgas iela","Jēkabpils","",""
"659","Jēkabpils (Cukurfabrikas iela)","15961","6598","56.5173228","25.8539961","Kreisā","A6","Rīgas iela","Jēkabpils","",""
"660","Čabas","15508","6092","56.7688987","24.6466628","Kreisā","","Zvejnieku iela","Ogres novads","Ogresgala pagasts","Ciemupe"
"661","Čabūti","13741","2467","56.3897505","23.8156623","Labā","V1072","","Jelgavas novads","Sesavas pagasts",""
"662","Čabūti","13742","2467","56.3904857","23.8160724","Kreisā","V1072","","Jelgavas novads","Sesavas pagasts",""
"663","Čagas","14774","4231","56.8029802","24.2485378","Labā","P89","","Ķekavas novads","Ķekavas pagasts",""
"664","Čaupi","15057","4886","55.8983555","27.3592845","Kreisā","V627","","Krāslavas novads","Kalniešu pagasts",""
"665","Čaupi","15058","4886","55.8989305","27.3595207","Labā","V627","","Krāslavas novads","Kalniešu pagasts",""
"666","Čiekuri","15509","6149","56.8919009","23.9866559","Kreisā","V15","Stīpnieku ceļš","Mārupes novads","",""
"667","Čiekuri","15510","6149","56.8923697","23.9864122","Labā","V15","Stīpnieku ceļš","Mārupes novads","",""
"668","Čiekuru iela","15511","6151","56.9393234","23.6820489","Labā","","Mežmalas iela","Jūrmala","",""
"669","Čiekuru iela","15512","6151","56.9395396","23.6821569","Kreisā","","Mežmalas iela","Jūrmala","",""
"670","Čukāni","14822","4347","56.7881670","26.3040309","Labā","P62","","Madonas novads","Praulienas pagasts",""
"671","Čukāni","14823","4347","56.7892113","26.3034400","Kreisā","P62","","Madonas novads","Praulienas pagasts",""
"672","Čumpji","14261","3437","57.8863904","25.5357560","Kreisā","V230","","Naukšēnu novads","Naukšēnu pagasts",""
"673","Čumpji","14262","3437","57.8864271","25.5356265","Labā","V230","","Naukšēnu novads","Naukšēnu pagasts",""
"674","Beberbeķu dabas parks","14067","2971","56.9367565","23.9185590","Labā","A5","","Mārupes novads","",""
"675","Beberbeķu dabas parks","14068","2971","56.9368725","23.9191351","Kreisā","A5","","Mārupes novads","",""
"676","Dākas","13930","2816","56.6968506","24.3286112","Kreisā","V9","","Ķekavas novads","",""
"677","Dākas","13931","2816","56.6973009","24.3294358","Labā","V9","","Ķekavas novads","",""
"678","Dāliņi","15087","4952","56.5022820","24.1725565","Labā","V1037","","Bauskas novads","Codes pagasts",""
"679","Dambenieki","14437","3734","56.4645359","21.4263428","Kreisā","V1210","","Priekules novads","Virgas pagasts",""
"680","Dambenieki","14438","3734","56.4645557","21.4263502","Labā","V1210","","Priekules novads","Virgas pagasts",""
"681","Dambis","14979","4783","56.8171628","24.6523024","Kreisā","V996","Brīvības iela","Ogres novads","Ogres pilsēta","Ogre"
"682","Dambis","14980","4783","56.8175597","24.6529089","Labā","V996","Brīvības iela","Ogres novads","Ogres pilsēta","Ogre"
"683","Dambja iela","15513","6152","56.4939676","25.8709486","Labā","P76","Brīvības iela 115","Jēkabpils","",""
"684","Dambja iela","15514","6152","56.4946181","25.8703103","Kreisā","P76","P76 123","Jēkabpils","",""
"685","Dambji","15088","4953","56.7993373","24.0747097","Labā","V7","","Olaines novads","Olaines pagasts",""
"686","Dambji","15089","4953","56.8004054","24.0748158","Kreisā","V7","","Olaines novads","Olaines pagasts",""
"687","Damrozes","15190","5185","57.2265650","25.7610843","Kreisā","V300","","Raunas novads","Drustu pagasts",""
"688","Damrozes","15191","5185","57.2267100","25.7612039","Labā","V300","","Raunas novads","Drustu pagasts",""
"689","Daneri","14986","4824","56.7462557","21.8352196","Kreisā","V1272","","Kuldīgas novads","Laidu pagasts",""
"690","Daneri","14987","4824","56.7468046","21.8342256","Labā","V1272","","Kuldīgas novads","Laidu pagasts",""
"691","Jaunā iela","15515","6153","56.9516022","23.9132784","Labā","","Jūrmalas iela","Mārupes novads","","Piņķi"
"692","Darbnīcas","15245","5402","55.9836603","26.6991894","Kreisā","V686","","Daugavpils novads","Maļinovas pagasts","Maļinova"
"693","Darbnīcas","15246","5402","55.9842147","26.6993392","Labā","V686","","Daugavpils novads","Maļinovas pagasts","Maļinova"
"694","Darbnīcas","13756","2493","56.4558160","26.2737900","Kreisā","V755","","Līvānu novads","Turku pagasts",""
"695","Darbnīcas","13757","2493","56.4561420","26.2736090","Labā","V755","","Līvānu novads","Turku pagasts",""
"696","Darbnīcas","13979","2880","57.8838851","25.7476352","Kreisā","V256","","Valkas novads","Ērģemes pagasts",""
"697","Darbnīcas","13980","2880","57.8841078","25.7476001","Labā","V256","","Valkas novads","Ērģemes pagasts",""
"698","Darbnīcas","13294","1363","57.1994132","25.0417447","Labā","V283","","Līgatnes novads","Līgatnes pagasts","Augšlīgatne"
"699","Darbnīcas","13295","1363","57.1999448","25.0418962","Kreisā","V283","","Līgatnes novads","Līgatnes pagasts","Augšlīgatne"
"700","Darbnīcas","14307","3560","57.2872425","26.4324518","Kreisā","V411","","Gulbenes novads","Lejasciema pagasts",""
"701","Darbnīcas","14308","3560","57.2875064","26.4327966","Labā","V411","","Gulbenes novads","Lejasciema pagasts",""
"702","Darbnīcas","14263","3442","56.6616634","23.0290933","Kreisā","V1130","","Dobeles novads","Annenieku pagasts","Kaķenieki"
"703","Dārdzāni","14048","2941","56.2883678","25.4250471","Labā","V792","","Viesītes novads","Saukas pagasts",""
"704","Dārdzāni","14049","2941","56.2884600","25.4250141","Kreisā","V792","","Viesītes novads","Saukas pagasts",""
"705","Dārtiņas","15072","4924","57.1456224","26.3084442","Labā","V433","","Gulbenes novads","Lizuma pagasts",""
"706","Dārtiņas","15073","4924","57.1460494","26.3089285","Kreisā","V433","","Gulbenes novads","Lizuma pagasts",""
"707","Dārza iela","11923","343","57.3106572","25.3606477","Kreisā","","Dārza iela 6","Priekuļu novads","Priekuļu pagasts","Priekuļi"
"708","Dārza iela","11917","343","57.3107032","25.3607793","Labā","","Dārza iela 7","Priekuļu novads","Priekuļu pagasts","Priekuļi"
"709","Dārza iela","11910","335","56.5936520","25.2357331","Labā","P87","Enerģētiķu iela 5","Aizkraukles novads","Aizkraukles pilsēta","Aizkraukle"
"710","Dārza iela","11907","335","56.5938001","25.2355000","Kreisā","P87","Enerģētiķu iela 5","Aizkraukles novads","Aizkraukles pilsēta","Aizkraukle"
"711","Dārziņi","15516","6154","56.9470872","23.7400208","Labā","","Slokas iela","Jūrmala","",""
"712","Dārziņi","15517","6154","56.9471129","23.7395269","Kreisā","","Slokas iela","Jūrmala","",""
"713","Katlakalna kapi","15228","5330","56.8954024","24.1720566","Kreisā","V2","","Ķekavas novads","Ķekavas pagasts","Katlakalns"
"715","Acones mazdārziņi","13936","2826","56.9140937","24.2669373","Labā","V35","","Salaspils novads","Salaspils pagasts","Acone"
"716","Acones mazdārziņi","13937","2826","56.9141354","24.2655598","Kreisā","V35","","Salaspils novads","Salaspils pagasts","Acone"
"717","Dārziņi","13510","1927","57.5862914","25.3170624","Labā","V216","","Kocēnu novads","Kocēnu pagasts",""
"718","Dārziņi","13511","1927","57.5862951","25.3170283","Kreisā","V216","","Kocēnu novads","Kocēnu pagasts",""
"719","Dārzniecība","14096","3001","56.7200593","26.2184579","Labā","P82","","Madonas novads","Ļaudonas pagasts","Toce"
"720","Dārzniecība","14097","3001","56.7204301","26.2191958","Kreisā","P82","","Madonas novads","Ļaudonas pagasts","Toce"
"721","Dārznieki","11970","368","56.5840734","23.6713752","Labā","V1056","Vilces iela 15","Jelgavas novads","Svētes pagasts","Svēte"
"722","Dārznieki","11953","368","56.5847559","23.6721179","Kreisā","V1056","Vilces iela 15","Jelgavas novads","Svētes pagasts","Svēte"
"723","Dārznieku iela","15518","6156","57.1228979","24.2647593","Kreisā","P1","","Ādažu novads","",""
"724","Dārznieku iela","15519","6156","57.1233778","24.2677492","Labā","P1","","Ādažu novads","","Carnikava"
"725","Dārzu iela","15520","6159","56.9445221","23.7254454","Kreisā","","Slokas iela","Jūrmala","",""
"726","Dārzu iela","15521","6159","56.9453365","23.7281811","Labā","","Slokas iela","Jūrmala","",""
"727","Daubītes","14725","4066","57.5692988","25.4180106","Kreisā","V186","Alejas iela 12","Burtnieku novads","Valmieras pagasts","Valmiermuiža"
"728","Daubītes","14726","4066","57.5695172","25.4177733","Labā","V186","Alejas iela 12","Burtnieku novads","Valmieras pagasts","Valmiermuiža"
"729","Daudziešas","13629","2187","57.2600466","25.3607766","Labā","V294","","Cēsu novads","Vaives pagasts",""
"730","Daudziešas","13630","2187","57.2604062","25.3599909","Kreisā","V294","","Cēsu novads","Vaives pagasts",""
"731","Daugava","15522","6161","56.6172752","25.7272764","Labā","","Daugavas iela 57","Pļaviņu novads","Pļaviņu pilsēta","Pļaviņas"
"732","Daugava","13606","2130","56.8844235","27.3755618","Labā","P48","","Balvu novads","Tilžas pagasts",""
"733","Daugava","13612","2130","56.8844235","27.3755618","Kreisā","P48","","Balvu novads","Tilžas pagasts",""
"734","Daugavas iela","15523","6168","56.7721582","24.6469691","Kreisā","","Daugavas iela","Ogres novads","Ogresgala pagasts","Ciemupe"
"735","Daukstes","13144","950","56.4002800","26.1690070","Kreisā","V754","","Līvānu novads","Turku pagasts",""
"736","Daukstes","13145","950","56.4008160","26.1706210","Labā","V754","","Līvānu novads","Turku pagasts",""
"737","Rājumu ceļš","12033","374","56.7113887","24.1124492","Labā","V7","","Olaines novads","Olaines pagasts",""
"738","Rājumu ceļš","12026","374","56.7120825","24.1126215","Kreisā","V7","","Olaines novads","Olaines pagasts",""
"739","Dāviņi","12018","369","56.4895573","24.3377586","Kreisā","P88","","Bauskas novads","Dāviņu pagasts",""
"740","Dāviņi","11989","369","56.4898837","24.3390226","Labā","P88","","Bauskas novads","Dāviņu pagasts",""
"741","Vietalvas centrs","13506","1923","56.7415555","25.7684635","A/V","V916","","Pļaviņu novads","Vietalvas pagasts","Vietalva"
"742","Degļupe 1","13360","1512","57.2056027","26.1242319","Kreisā","P33","","Gulbenes novads","Rankas pagasts",""
"743","Degļupe 1","13361","1512","57.2058220","26.1266647","Labā","P33","","Gulbenes novads","Rankas pagasts",""
"744","Delfīni","14609","3941","57.7350306","22.5807972","Kreisā","P131","","Dundagas novads","Kolkas pagasts","Kolka"
"745","Delfīni","14610","3941","57.7354153","22.5811165","Labā","P131","","Dundagas novads","Kolkas pagasts","Kolka"
"746","Deņkova","14449","3745","56.1656709","27.6703877","Labā","V618","","Dagdas novads","Ezernieku pagasts",""
"747","Depo stadions","13005","629","57.1506775","24.8630420","Labā","","Pulkveža Brieža iela","Siguldas novads","Siguldas pilsēta","Sigulda"
"748","Depo stadions","8904","629","57.1506897","24.8637305","Kreisā","","Pulkveža Brieža iela","Siguldas novads","Siguldas pilsēta","Sigulda"
"749","Dienas centrs","15524","6178","56.5953334","24.2050553","Kreisā","","Edvarta Virzas iela","Iecavas novads","","Iecava"
"750","Dienvidu iela","13318","1411","56.8615533","24.3633281","Labā","V57","Miera iela","Salaspils novads","Salaspils pilsēta","Salaspils"
"751","Dienvidu kapi","13477","1899","56.4728199","21.0106414","Labā","A11","","Nīcas novads","Nīcas pagasts",""
"752","Dienvidu kapi","13478","1899","56.4731751","21.0106492","Kreisā","A11","","Nīcas novads","Nīcas pagasts",""
"753","Dīķīši","14017","2911","56.0114299","26.1574401","Labā","V702","","Ilūkstes novads","Bebrenes pagasts",""
"754","Dīķīši","14018","2911","56.0113519","26.1573271","Kreisā","V702","","Ilūkstes novads","Bebrenes pagasts",""
"755","Dimanti","14531","3851","56.8289668","24.2314719","Kreisā","V6","","Ķekavas novads","Ķekavas pagasts","Ķekava"
"756","Dimanti","14532","3851","56.8295881","24.2317330","Labā","V6","","Ķekavas novads","Ķekavas pagasts","Ķekava"
"757","Dimanti","13495","1915","57.6878277","24.7230553","Labā","V146","","Limbažu novads","Pāles pagasts",""
"758","Dimanti","13496","1915","57.6883952","24.7219218","Kreisā","V146","","Limbažu novads","Pāles pagasts",""
"759","Dimanti","13201","1105","56.4980502","25.2436769","Labā","V929","","Jaunjelgavas novads","Daudzeses pagasts","Daudzeva"
"760","Dimanti","14540","3871","56.2829196","25.7794587","Labā","P74","","Jēkabpils novads","Kalna pagasts",""
"761","Dimanti","14541","3871","56.2838632","25.7792315","Kreisā","P74","","Jēkabpils novads","Kalna pagasts",""
"762","Dimdas","14211","3359","57.3178704","25.1983484","Labā","V287","","Pārgaujas novads","Raiskuma pagasts",""
"763","Dimzas","13288","1359","56.5701464","23.4939026","Labā","V1079","","Jelgavas novads","Zaļenieku pagasts",""
"764","Dimzas","13289","1359","56.5701913","23.4939120","Kreisā","V1079","","Jelgavas novads","Zaļenieku pagasts",""
"765","Dinaz","15525","6179","56.6116293","25.2486367","Kreisā","","Jaunceltnes iela 16","Aizkraukles novads","Aizkraukles pilsēta","Aizkraukle"
"766","Dinaz","15526","6179","56.6121317","25.2468668","Labā","","Jaunceltnes iela 9A","Aizkraukles novads","Aizkraukles pilsēta","Aizkraukle"
"768","Divkle","14816","4339","56.2635536","26.3993914","Labā","V678","","Vārkavas novads","Upmalas pagasts",""
"769","Divkle","14817","4339","56.2643693","26.3987800","Kreisā","V678","","Vārkavas novads","Upmalas pagasts",""
"770","Diždobeļi","13232","1165","56.3789063","21.2724106","Labā","P113","","Grobiņas novads","Bārtas pagasts",""
"771","Diždobeļi","13233","1165","56.3792085","21.2721215","Kreisā","P113","","Grobiņas novads","Bārtas pagasts",""
"772","Djatlovka","14454","3753","56.5398163","27.9505104","Labā","V508","","Ciblas novads","Līdumnieku pagasts",""
"773","Djatlovka","14455","3753","56.5400414","27.9500369","Kreisā","V508","","Ciblas novads","Līdumnieku pagasts",""
"774","Dobeles Halle","12061","381","56.6209311","23.2686857","Kreisā","V1128","Īles iela 1","Dobeles novads","Dobeles pilsēta","Dobele"
"775","Dobeles Halle","12050","381","56.6213185","23.2695819","Labā","V1128","Īles iela 2","Dobeles novads","Dobeles pilsēta","Dobele"
"776","Dobeles sveces","14542","3875","56.6325605","23.2721000","Labā","V1101","Uzvaras iela 14-16","Dobeles novads","Dobeles pilsēta","Dobele"
"777","Dobeles sveces","14543","3875","56.6331531","23.2712404","Kreisā","V1101","Uzvaras iela 31","Dobeles novads","Dobeles pilsēta","Dobele"
"778","Dokupe","13258","1253","57.3526304","21.6242753","Kreisā","P122","","Ventspils novads","Tārgales pagasts","Ēvartciems"
"779","Dokupe","13259","1253","57.3532851","21.6237258","Labā","P122","","Ventspils novads","Tārgales pagasts","Ēvartciems"
"780","Dorotpole","13290","1360","56.2335685","27.2526959","Kreisā","P57","","Rēzeknes novads","Pušas pagasts",""
"781","Dorotpole","13291","1360","56.2339727","27.2522963","Labā","P57","","Rēzeknes novads","Pušas pagasts",""
"782","Draudzības iela","13172","1022","56.8101113","24.6061090","Kreisā","V967","Dārza iela","Ogres novads","Ogres pilsēta","Ogre"
"783","Dravnieki","13958","2857","57.1055401","26.3309765","Labā","V847","","Gulbenes novads","Druvienas pagasts",""
"784","Dravnieki","13959","2857","57.1055619","26.3304402","Kreisā","V847","","Gulbenes novads","Druvienas pagasts",""
"785","Dravnieki","15528","6189","57.2644912","24.5784600","Kreisā","V88","","Sējas novads","","Pabaži"
"786","Dravnieki","15529","1414","57.2313054","22.5481845","Labā","V1406","Raiņa iela 90","Talsu novads","","Talsi"
"787","Dravnieki","13323","1414","57.2311542","22.5483664","Kreisā","V1406","Raiņa iela 90","Talsu novads","Talsu pilsēta","Talsi"
"788","Drebēji","14867","4524","57.0498624","27.1199904","Labā","V484","","Rugāju novads","Rugāju pagasts",""
"789","Drebēji","14868","4524","57.0499815","27.1199072","Kreisā","V484","","Rugāju novads","Rugāju pagasts",""
"790","Dreiņi","13082","855","57.1094828","26.7283734","Labā","V427","","Gulbenes novads","Daukstu pagasts",""
"791","Dreiņi","13083","855","57.1095854","26.7283116","Kreisā","V427","","Gulbenes novads","Daukstu pagasts",""
"792","Drosmes","12117","383","56.6307612","23.2632705","Kreisā","P97","","Dobeles novads","Dobeles pilsēta","Dobele"
"793","Drosmes","12104","383","56.6315374","23.2627124","Labā","P97","Liepājas šoseja 19C","Dobeles novads","Dobeles pilsēta","Dobele"
"794","Druķi","14019","2912","56.3290308","25.7774841","Labā","P74","","Jēkabpils novads","Kalna pagasts",""
"795","Druķi","14020","2912","56.3299578","25.7777718","Kreisā","P74","","Jēkabpils novads","Kalna pagasts",""
"796","Drupin.bāze","15530","6196","57.4205927","22.9281862","Kreisā","P131","","Rojas novads","",""
"797","Drupin.bāze","15531","6196","57.4208719","22.9278318","Labā","P131","","Rojas novads","",""
"798","Druvas","15039","4873","56.3602092","26.3903850","Kreisā","V761","","Līvānu novads","Rožupes pagasts","Rožupe"
"799","Druvas","15040","4873","56.3605010","26.3908740","Labā","V761","","Līvānu novads","Rožupes pagasts","Rožupe"
"800","Druvas","14893","4560","56.2000106","25.5078934","Labā","V820","","Viesītes novads","Rites pagasts",""
"801","Druvas","14697","4020","56.8534039","25.0475458","Kreisā","V920","","Ogres novads","Lauberes pagasts",""
"802","Druvas","14698","4020","56.8536500","25.0467893","Labā","V920","","Ogres novads","Lauberes pagasts",""
"803","Druvu iela","15532","6197","56.9491868","23.7504339","Kreisā","","Slokas iela","Jūrmala","",""
"804","Druvu iela","15533","6197","56.9492204","23.7525540","Labā","","Slokas iela","Jūrmala","",""
"805","DS 'Ķīšupe 2'","14456","3755","57.2773696","24.4562403","Labā","V78","","Saulkrastu novads","Saulkrastu pagasts","Ķīšupe"
"806","DS 'Ķīšupe 2'","14457","3755","57.2775270","24.4561975","Kreisā","V78","","Saulkrastu novads","Saulkrastu pagasts","Ķīšupe"
"807","Dubna 2","14080","2989","56.0742635","26.6975016","Kreisā","P64","","Daugavpils novads","Dubnas pagasts","Dubna"
"808","Dubna 2","14081","2989","56.0745435","26.6968735","Labā","P64","","Daugavpils novads","Dubnas pagasts","Dubna"
"809","Dubultu poliklīnika","15534","6198","56.9658899","23.7711240","Labā","","Slokas iela","Jūrmala","",""
"810","Dubultu poliklīnika","15535","6198","56.9668403","23.7705642","Kreisā","","Slokas iela","Jūrmala","",""
"811","Dūmiņi","13489","1911","57.1329409","22.9950964","Kreisā","V1436","","Tukuma novads","Zentenes pagasts",""
"812","Dūmiņi","13490","1911","57.1335437","22.9951771","Labā","V1436","","Tukuma novads","Zentenes pagasts",""
"813","Dumpji","13088","862","56.8350502","22.7236038","Kreisā","V1486","","Kandavas novads","Zantes pagasts",""
"814","Dumpji","13089","862","56.8356546","22.7215601","Labā","V1486","","Kandavas novads","Zantes pagasts",""
"815","Dundagas iela","15536","6199","57.2431834","22.5817891","Labā","","Dundagas iela 2","Talsu novads","Talsu pilsēta","Talsi"
"816","Dundagas iela","14603","3933","57.2435469","22.5816476","Kreisā","P125","P125 2","Talsu novads","Talsu pilsēta","Talsi"
"817","DUS","15299","9506","56.5289681","27.7370048","Labā","P49","P49 240","Ludzas novads","Ludzas pilsēta","Ludza"
"818","DUS Viada","15537","6200","57.0877618","24.3155774","Kreisā","V30","Rīgas gatve","Ādažu novads","","Ādaži"
"819","DUS Viada","15538","6200","57.0885690","24.3151080","Labā","V30","Rīgas gatve","Ādažu novads","","Ādaži"
"820"," Ķemeru stacija","15999","6201","56.9390025","23.4901252","A/V","","Brocēnu iela","Jūrmala","",""
"821","Dzelzava","14853","4394","56.3930188","26.6466916","Labā","V737","","Preiļu novads","Saunas pagasts",""
"822","Dzelzava","14854","4394","56.3937374","26.6464583","Kreisā","V737","","Preiļu novads","Saunas pagasts",""
"823","Dzelzceļa pārbrauktuve","14959","4731","56.8596809","24.3485628","Kreisā","V57","Rīgas iela","Salaspils novads","Salaspils pilsēta","Salaspils"
"824","Dzelzceļa pārbrauktuve","14960","4731","56.8601796","24.3493691","Labā","V57","Rīgas iela","Salaspils novads","Salaspils pilsēta","Salaspils"
"825","Dzelzceļa stacija","11345","290","56.5313284","26.4129574","Kreisā","P62","","Krustpils novads","Atašienes pagasts","Atašiene"
"826","Dzelzceļa stacija","11328","290","56.5315719","26.4128108","Labā","P62","","Krustpils novads","Atašienes pagasts","Atašiene"
"827","Dzelzskalni","15092","4967","56.8833709","24.1827579","Labā","V2","","Ķekavas novads","Ķekavas pagasts","Katlakalns"
"828","Dzelzskalni","15093","4967","56.8833850","24.1832634","Kreisā","V2","","Ķekavas novads","Ķekavas pagasts","Katlakalns"
"830","Dzintari","15539","6202","56.4997986","21.5129592","Kreisā","","Kalna iela 2","Priekules novads","Bunkas pagasts","Bunka"
"831","Dzintari","15540","6202","56.4998891","21.5128823","Labā","","Kalna iela 2","Priekules novads","Bunkas pagasts","Bunka"
"832","Dzintarkalni","14732","4070","56.8692594","22.9894286","Labā","V1460","","Tukuma novads","Irlavas pagasts","Irlava"
"833","Dzintarnieki","13385","1659","56.4166948","21.1039852","Kreisā","V1222","","Nīcas novads","Otaņķu pagasts",""
"834","Dzintaru ceļa pārvads","12127","387","56.9733397","23.8357565","Kreisā","","Rīgas iela","Jūrmala","",""
"835","Dzintaru ceļa pārvads","12119","387","56.9735688","23.8362418","Labā","","Rīgas iela","Jūrmala","",""
"836","Dzirnavas","15122","4989","56.8126356","24.6254495","Kreisā","V967","J.Čakstes prospekts","Ogres novads","Ogres pilsēta","Ogre"
"837","Dzirnavas","13183","1056","56.9750147","23.2066372","Labā","V1446","","Engures novads","Smārdes pagasts",""
"838","Dzirnavu iela","15541","6203","56.6192112","25.7437793","Labā","","Daugavas iela 121","Pļaviņu novads","Pļaviņu pilsēta","Pļaviņas"
"839","Dzirnavu iela","15542","6203","56.6191396","25.7438177","Kreisā","","Daugavas iela 88-90","Pļaviņu novads","Pļaviņu pilsēta","Pļaviņas"
"840","Dzirnavu iela","15286","9503","56.5364451","27.7327604","Kreisā","P49","Latgales iela 205","Ludzas novads","Ludzas pilsēta","Ludza"
"841","Dzirnavu iela","13434","1794","56.7429946","24.3794652","Labā","P91","Rīgas iela","Ķekavas novads","",""
"842","Dzirnavu iela","13435","1794","56.7430369","24.3780497","Kreisā","P91","Rīgas iela","Ķekavas novads","",""
"843","Dzirnieki","15002","4846","56.5657254","23.8744929","Labā","P94","","Jelgavas novads","Jaunsvirlaukas pagasts",""
"844","Dzirnieki","15003","4846","56.5657655","23.8743328","Kreisā","P94","","Jelgavas novads","Jaunsvirlaukas pagasts",""
"845","Eglaine","15543","6204","57.1899727","24.5973303","Kreisā","V79","","Sējas novads","",""
"846","Eglaine","15544","6204","57.1908049","24.5970025","Labā","V79","","Sējas novads","",""
"847","Eglaine","15148","5010","57.0673919","27.1153146","Kreisā","V466","","Rugāju novads","Rugāju pagasts",""
"848","Eglaine","15149","5010","57.0678042","27.1153717","Labā","V466","","Rugāju novads","Rugāju pagasts",""
"849","Eglāji","15118","4986","56.6157963","23.8780016","Labā","V1071","","Jelgavas novads","Jaunsvirlaukas pagasts",""
"850","Eglāji","15119","4986","56.6163144","23.8770604","Kreisā","V1071","","Jelgavas novads","Jaunsvirlaukas pagasts",""
"851","Eglītes","14170","3265","56.6932346","26.3370388","Kreisā","P62","","Madonas novads","Mētrienas pagasts",""
"852","Eglītes","14171","3265","56.6940036","26.3374954","Labā","P62","","Madonas novads","Mētrienas pagasts",""
"853","Egļuciems","15545","6205","56.9636203","23.8596291","Labā","A10","","Jūrmala","",""
"854","Egļuciems","15546","6205","56.9632959","23.8589631","Kreisā","A10","","Jūrmala","",""
"855","Krustkalni","15043","554","56.8955199","24.1410601","Kreisā","A7","","Ķekavas novads","Ķekavas pagasts","Krustkalni"
"856","Elīnas","14703","4026","56.7433146","23.0144628","Labā","P104","","Jaunpils novads","Jaunpils pagasts",""
"857","Elīnas","14704","4026","56.7437134","23.0149814","Kreisā","P104","","Jaunpils novads","Jaunpils pagasts",""
"858","Elites iela","15547","6208","57.3159115","25.3502822","Labā","","Selekcijas iela 18","Priekuļu novads","Priekuļu pagasts","Priekuļi"
"859","Elites iela","15548","6208","57.3160991","25.3501679","Kreisā","","Selekcijas iela 18","Priekuļu novads","Priekuļu pagasts","Priekuļi"
"860","Endzelnieki","14887","4550","56.2892256","25.8602497","Kreisā","V790","","Jēkabpils novads","Leimaņu pagasts",""
"861","Endzelnieki","14888","4550","56.2892653","25.8603263","Labā","V790","","Jēkabpils novads","Leimaņu pagasts",""
"862","Enerģētiķi","14196","3341","56.9149029","24.3351473","Kreisā","V35","","Salaspils novads","Salaspils pagasts",""
"863","Enerģētiķi","14197","3341","56.9149677","24.3364298","Labā","V35","","Salaspils novads","Salaspils pagasts",""
"864","Engures ēdnīca","14571","3909","57.1590006","23.2294416","Labā","P131","","Engures novads","Engures pagasts","Engure"
"865","Engures ēdnīca","14572","3909","57.1591219","23.2293119","Kreisā","P131","","Engures novads","Engures pagasts","Engure"
"866","Eniņi","13314","1408","56.7044642","23.4437338","Kreisā","P98","","Jelgavas novads","Līvbērzes pagasts",""
"867","Eniņi","13315","1408","56.7051574","23.4423801","Labā","P98","","Jelgavas novads","Līvbērzes pagasts",""
"868","Enkurāji","14069","2974","56.6830800","24.8973975","Labā","A6","","Lielvārdes novads","Lielvārdes pagasts",""
"869","Enkurāji","14070","2974","56.6834551","24.8975833","Kreisā","A6","","Lielvārdes novads","Lielvārdes pagasts",""
"870","Ērberģe","15010","4850","56.3686452","25.0012029","Kreisā","V932","","Neretas novads","Mazzalves pagasts","Ērberģe"
"871","Ērberģe","15011","4850","56.3686987","25.0012561","Labā","V932","","Neretas novads","Mazzalves pagasts","Ērberģe"
"872","Ērgļi","14563","3903","57.3593664","22.7639734","Kreisā","V1414","","Talsu novads","Ārlavas pagasts",""
"873","Ērgļi","14564","3903","57.3594171","22.7640556","Labā","V1414","","Talsu novads","Ārlavas pagasts",""
"874","Ērgļu iela","12150","442","56.9337783","24.2468275","Kreisā","","Garā iela","Ropažu novads","","Dreiliņi"
"875","Ērgļu iela","12147","442","56.9342094","24.2462696","Labā","","Garā iela","Ropažu novads","","Dreiliņi"
"877","Ērgļu klintis","12579","220","57.3541116","25.2610016","A/V","V292","","Priekuļu novads","Priekuļu pagasts",""
"878","Ermiķi","14082","2990","57.3176829","26.8971868","Labā","V396","","Alūksnes novads","Kalncempju pagasts",""
"879","Ermiķi","14083","2990","57.3179242","26.8956419","Kreisā","V396","","Alūksnes novads","Kalncempju pagasts",""
"880","Ērmiķi","13881","2735","56.5534602","23.6471976","Labā","V1056","","Jelgavas novads","Svētes pagasts",""
"881","Ērmiķi","13882","2735","56.5539511","23.6483282","Kreisā","V1056","","Jelgavas novads","Svētes pagasts",""
"882","Estrāde","12194","458","56.6082761","23.2887621","Labā","","Meža prospekts 50","Dobeles novads","Dobeles pilsēta","Dobele"
"883","Estrāde","12184","458","56.6075692","23.2891661","Kreisā","","Meža prospekts 52","Dobeles novads","Dobeles pilsēta","Dobele"
"884","Ezera","14059","2963","56.4505526","27.0675580","Kreisā","V580","Rēzeknes iela 1","Rēzeknes novads","Silmalas pagasts","Tiskādi"
"886","Ezeri","14458","3757","57.0311397","24.8187391","Labā","V58","","Siguldas novads","Allažu pagasts","Allažmuiža"
"887","Ezeri","14459","3757","57.0315657","24.8205093","Kreisā","V58","","Siguldas novads","Allažu pagasts","Allažmuiža"
"888","Ezeri","13791","2603","56.4717611","21.5914859","Labā","P106","","Priekules novads","Priekules pagasts",""
"889","Ezeriņi","13394","1672","56.1179447","25.8476235","Kreisā","V822","","Aknīstes novads","Asares pagasts",""
"890","Ezeriņi","13395","1672","56.1182024","25.8469653","Labā","V822","","Aknīstes novads","Asares pagasts",""
"891","Ezeriņi","13736","2458","56.6460584","26.3149653","Kreisā","P62","","Madonas novads","Mētrienas pagasts",""
"892","Ezeriņi","13737","2458","56.6468953","26.3133132","Labā","P62","","Madonas novads","Mētrienas pagasts",""
"893","Ezerkalni","15549","6209","57.2160798","22.6023964","Labā","","","Talsu novads","Lībagu pagasts","Mundigciems"
"894","Ezerkalni","15550","6209","57.2161850","22.6023662","Kreisā","","","Talsu novads","Lībagu pagasts","Mundigciems"
"896","Ežiņas","13665","2321","57.9651083","25.3656450","Kreisā","V177","","Naukšēnu novads","Ķoņu pagasts",""
"897","Ežiņas","13666","2321","57.9659555","25.3660207","Labā","V177","","Naukšēnu novads","Ķoņu pagasts",""
"898","Ežupalte","13613","2138","57.4999440","27.4090810","Labā","V394","","Alūksnes novads","Pededzes pagasts",""
"899","Ežupalte","13614","2138","57.5001671","27.4087986","Kreisā","V394","","Alūksnes novads","Pededzes pagasts",""
"900","Kārļa Kvanta iela","14401","3683","56.8022427","24.6144903","Labā","","Daugavpils Iela","Ogres novads","Ogres pilsēta","Ogre"
"901","Kārļa Kvanta iela","14402","3683","56.8029297","24.6138744","Kreisā","","Daugavpils Iela","Ogres novads","Ogres pilsēta","Ogre"
"902","Ferma","15020","4855","56.1064322","26.8109427","Labā","V683","","Daugavpils novads","Višķu pagasts",""
"903","Ferma","15021","4855","56.1065153","26.8106179","Kreisā","V683","","Daugavpils novads","Višķu pagasts",""
"904","Mucenieku ceļš","15551","6210","56.9696189","24.3738228","Kreisā","V31","Kaiceles iela","Ropažu novads","","Sunīši"
"905","Mucenieku ceļš","15552","6210","56.9696421","24.3737186","Labā","V31","Kaiceles iela","Ropažu novads","","Sunīši"
"906","Gaiļukalns","13964","2866","57.0304006","26.9762821","Kreisā","P36","","Rugāju novads","Rugāju pagasts",""
"907","Gaiļukalns","13965","2866","57.0312312","26.9743452","Labā","P36","","Rugāju novads","Rugāju pagasts",""
"908","Gaismas","13463","1856","56.7328533","21.5844549","Kreisā","V1199","","Aizputes novads","Aizputes pagasts",""
"909","Gaismas","14494","3805","56.7330280","21.5845287","Labā","V1199","","Aizputes novads","Lažas pagasts",""
"910","Gaismas iela","15553","6212","57.1476948","24.8525628","Labā","","Pulkveža Brieža iela","Siguldas novads","Siguldas pilsēta","Sigulda"
"911","Gaismas iela","15554","6212","57.1477704","24.8523177","Kreisā","","Pulkveža Brieža iela","Siguldas novads","Siguldas pilsēta","Sigulda"
"912","Gaismas prospekts","15555","6213","56.8251567","24.5829757","Kreisā","","Vidus prospekts","Ogres novads","Ogres pilsēta","Ogre"
"913","Gaišeļi","15059","4890","55.8651402","27.1549129","Kreisā","V633","","Krāslavas novads","Kaplavas pagasts",""
"914","Galareinas","15177","5140","57.1377617","25.3916627","Kreisā","P31","","Amatas novads","Amatas pagasts",""
"915","Galareinas","15178","5140","57.1386336","25.3905567","Labā","P31","","Amatas novads","Amatas pagasts",""
"916","Galenieki","15300","9577","56.6455105","23.2553178","A/V","V1101","","Dobeles novads","Dobeles pagasts",""
